,Service Request (SR) Number,SR Description,Method Received,SR Status,Status Change Date,Created Date,Last Update Date,Close Date,SR Location,Street Number,Street Name,City,Zip Code,County,State Plane X Coordinate,State Plane Y Coordinate,Latitude Coordinate,Longitude Coordinate,(Latitude.Longitude),Council District,Map Page,Map Tile
35490,16-00307348,zCoyote Complaints,Phone,New,11/22/2016 10:22:45 AM,11/22/2016 10:22:45 AM,11/22/2016 10:22:45 AM,,"7201 LEVANDER LOOP, AUSTIN, TX 78721",7201.0,LEVANDER,AUSTIN,78721.0,TRAVIS,3130986.14,10065080.57,30.25139382,-97.69043353,"(30.25139382, -97.69043353)",3.0,616F,ML21
55637,17-00217599,Coyote Complaints,Phone,Closed,08/01/2017 01:54:24 PM,07/29/2017 09:56:33 AM,08/01/2017 01:54:24 PM,08/01/2017 01:54:24 PM,"MARYWOOD CIR & HARTNELL DR, AUSTIN, TX 78758",,MARYWOOD CIR & HARTNELL DR,AUSTIN,78723.0,TRAVIS,3134978.74821135,10090807.0006026,30.32184946,-97.67584579,"(30.32184946, -97.67584579)",1.0,556H,MM27
55673,17-00201267,Coyote Complaints,Phone,Closed,07/14/2017 04:25:17 PM,07/14/2017 03:19:30 PM,07/14/2017 04:25:17 PM,07/14/2017 04:25:17 PM,"8533 ADIRONDACK TRL, AUSTIN, TX 78759",8533.0,ADIRONDACK,AUSTIN,78759.0,TRAVIS,3106889.99781616,10112995.999826,30.38465812,-97.76322266,"(30.38465812, -97.76322266)",10.0,494Q,MH32
58041,18-00125689,Coyote Complaints,Phone,Closed,04/30/2018 11:50:29 AM,04/30/2018 09:56:46 AM,04/30/2018 10:50:31 AM,04/30/2018 11:50:29 AM,"3902 ETON LN, AUSTIN, TX 78727",3902.0,ETON,AUSTIN,78727.0,TRAVIS,3119368.49964656,10124244.9988004,30.414781199999997,-97.72282094,"(30.4147812, -97.72282094)",7.0,465Q,MK35
61943,18-00167991,Coyote Complaints,Phone,Closed,06/29/2018 10:47:32 AM,06/01/2018 05:33:02 PM,06/29/2018 09:47:34 AM,06/29/2018 10:47:32 AM,"4601 FAWNWOOD CV, AUSTIN, TX 78735",4601.0,FAWNWOOD,AUSTIN,78735.0,TRAVIS,3088779.75167544,10061562.0019001,30.24440888,-97.82432343,"(30.24440888, -97.82432343)",8.0,613J,ME20
62260,18-00176845,Coyote Complaints,Phone,Closed,06/29/2018 11:02:42 AM,06/07/2018 09:55:31 PM,06/29/2018 10:02:44 AM,06/29/2018 11:02:42 AM,"4072 ENCLAVE MESA CIR, AUSTIN, TX 78731",4072.0,ENCLAVE MESA,AUSTIN,78731.0,TRAVIS,3106805.99974087,10104739.9995761,30.36196877,-97.76409368,"(30.36196877, -97.76409368)",10.0,524C,MH30
62271,17-00199131,Coyote Complaints,Phone,Closed,07/14/2017 03:25:22 PM,07/12/2017 06:41:10 PM,07/14/2017 03:25:22 PM,07/14/2017 03:25:22 PM,"4908 CRAIG DR, AUSTIN, TX 78727",4908.0,CRAIG,AUSTIN,78727.0,TRAVIS,3115886.24977322,10125921.9993225,30.41961523,-97.73374098,"(30.41961523, -97.73374098)",6.0,465P,MJ35
62276,18-00176846,Coyote Complaints,Phone,Closed,06/29/2018 11:11:33 AM,06/07/2018 09:57:47 PM,06/29/2018 10:11:35 AM,06/29/2018 11:11:33 AM,"4041 ENCLAVE MESA CIR, AUSTIN, TX 78731",4041.0,ENCLAVE MESA,AUSTIN,78731.0,TRAVIS,3107189.24737047,10104961.9986552,30.36255467,-97.76286256,"(30.36255467, -97.76286256)",10.0,524C,MH30
64707,17-00314106,Coyote Complaints,Phone,New,10/20/2017 08:12:57 AM,10/20/2017 08:12:57 AM,10/20/2017 08:12:58 AM,,"4510 FRONTIER TRL, AUSTIN, TX 78745",4510.0,FRONTIER,AUSTIN,78745.0,TRAVIS,3098208.7526963,10056110.0019498,30.22883387,-97.79486459,"(30.22883387, -97.79486459)",5.0,613Z,MF19
68035,18-00204091,Coyote Complaints,Phone,Closed,06/29/2018 12:09:26 PM,06/28/2018 02:00:10 PM,06/29/2018 12:09:26 PM,06/29/2018 12:09:26 PM,"9010 FAIRWAY HILL DR, AUSTIN, TX 78750",9010.0,FAIRWAY HILL,AUSTIN,78750.0,TRAVIS,3097657.75230772,10132390.9982313,30.43855596,-97.7910894,"(30.43855596, -97.7910894)",6.0,434W,MG37
72444,18-00205659,Coyote Complaints,Phone,Closed,06/29/2018 04:46:40 PM,06/29/2018 02:58:11 PM,06/29/2018 03:46:42 PM,06/29/2018 04:46:40 PM,"3925 W BRAKER LN, AUSTIN, TX 78759",3925.0,BRAKER,AUSTIN,78759.0,TRAVIS,3115529.3984232,10117595.3591493,30.3967494,-97.73548971,"(30.3967494, -97.73548971)",7.0,495F,MJ33
78648,16-00284050,zCoyote Complaints,Phone,New,10/26/2016 08:28:04 AM,10/26/2016 08:28:04 AM,10/26/2016 08:28:04 AM,,"7201 LEVANDER LOOP, AUSTIN, TX 78721",7201.0,LEVANDER,AUSTIN,78721.0,TRAVIS,3130986.14,10065080.57,30.25139382,-97.69043353,"(30.25139382, -97.69043353)",3.0,616F,ML21
80790,17-00217996,Coyote Complaints,Phone,Closed,08/01/2017 03:48:32 PM,07/29/2017 04:20:25 PM,08/01/2017 03:48:32 PM,08/01/2017 03:48:32 PM,"W SLAUGHTER LN & MANCHACA RD, AUSTIN, TX 78748",,W SLAUGHTER LN & MANCHACA RD,AUSTIN,78748.0,TRAVIS,3089546.40000001,10035869.64,30.17373616,-97.82373159,"(30.17373616, -97.82373159)",5.0,673N,ME14
81499,17-00218219,Coyote Complaints,Phone,Closed,08/01/2017 02:03:39 PM,07/29/2017 08:29:11 PM,08/01/2017 02:03:39 PM,08/01/2017 02:03:39 PM,"6619 MESA HOLLOW DR, AUSTIN, TX 78750",6619.0,MESA HOLLOW,AUSTIN,78750.0,TRAVIS,3098557.25069738,10110750.9981477,30.37901345,-97.78980578,"(30.37901345, -97.78980578)",10.0,494S,MG31
83586,18-00001177,Coyote Complaints,Phone,Closed,01/02/2018 05:10:38 PM,01/02/2018 11:59:35 AM,01/02/2018 05:10:38 PM,01/02/2018 05:10:38 PM,"8605 SWANSON LN, AUSTIN, TX 78748",8605.0,SWANSON,AUSTIN,78748.0,TRAVIS,3098813.00300539,10036737.0029802,30.1755423,-97.79435176,"(30.1755423, -97.79435176)",2.0,673M,MF14
85381,17-00233467,Coyote Complaints,Phone,New,08/13/2017 11:06:57 AM,08/13/2017 11:06:57 AM,08/13/2017 11:06:58 AM,,"9100 MOUNTAIN RIDGE DR, AUSTIN, TX 78759",9100.0,MOUNTAIN RIDGE,AUSTIN,78759.0,TRAVIS,3109902.04839922,10114038.0892926,30.387331,-97.75359589,"(30.387331, -97.75359589)",10.0,494M,MH32
104313,14-00102694,Coyote Complaints,Phone,Closed,06/02/2014 03:07:09 PM,05/29/2014 07:01:21 AM,06/02/2014 03:07:10 PM,06/02/2014 03:07:09 PM,"GARNER AVE & JULIET ST, AUSTIN, TX",,GARNER AVE & JULIET ST,AUSTIN,78704.0,TRAVIS,3107202.75,10067719.0,30.26017787,-97.76554536,"(30.26017787, -97.76554536)",5.0,614C,MH21
104544,14-00101605,Coyote Complaints,Phone,Closed,05/28/2014 09:36:14 AM,05/27/2014 04:37:12 PM,05/28/2014 09:36:15 AM,05/28/2014 09:36:14 AM,"1306 CLOVERLEAF DR, AUSTIN, TX",1306.0,CLOVERLEAF,AUSTIN,78723.0,TRAVIS,3126924.00795702,10087053.3929791,30.31205793,-97.701649,"(30.31205793, -97.701649)",4.0,556N,ML26
104545,14-00101314,Coyote Complaints,Phone,Closed,05/28/2014 09:35:46 AM,05/27/2014 10:48:54 AM,05/28/2014 09:35:46 AM,05/28/2014 09:35:46 AM,"8110 FM 2222 RD 33, AUSTIN, TX",8110.0,2222,AUSTIN,78730.0,TRAVIS,3092971.86600535,10110915.807714699,30.37981639,-97.80750232,"(30.37981639, -97.80750232)",10.0,493Q,MF32
104943,14-00099169,Coyote Complaints,Phone,Closed,05/26/2014 01:44:47 PM,05/23/2014 05:57:44 PM,05/26/2014 01:44:47 PM,05/26/2014 01:44:47 PM,"2200 GRISWOLD LN, AUSTIN, TX",2200.0,GRISWOLD,AUSTIN,78703.0,TRAVIS,3107156.9505156004,10079026.4103371,30.29126326,-97.76486352,"(30.29126326, -97.76486352)",10.0,584C,MH24
104948,14-00101019,Coyote Complaints,Phone,Closed,05/27/2014 09:15:34 AM,05/26/2014 09:07:38 PM,05/27/2014 09:15:34 AM,05/27/2014 09:15:34 AM,"14400 HARRIS RIDGE BLVD, AUSTIN, TX",14400.0,HARRIS RIDGE,AUSTIN,78660.0,TRAVIS,3143933.87147669,10126790.6121581,30.420170000000002,-97.64471528,"(30.42017, -97.64471528)",,467L,MP35
104949,14-00100998,Coyote Complaints,Phone,Closed,05/27/2014 09:14:46 AM,05/26/2014 08:36:19 PM,05/27/2014 09:14:46 AM,05/27/2014 09:14:46 AM,"1100 LOST CREEK BLVD, AUSTIN, TX",1100.0,LOST CREEK,AUSTIN,78746.0,TRAVIS,3088337.75121574,10075813.9711407,30.28361339,-97.82470509,"(30.28361339, -97.82470509)",8.0,583J,ME23
105080,14-00100353,Coyote Complaints,Phone,Closed,05/26/2014 01:48:17 PM,05/25/2014 08:39:47 PM,05/26/2014 01:48:17 PM,05/26/2014 01:48:17 PM,"1305 SAWGRASS CV, AUSTIN, TX",1305.0,SAWGRASS,AUSTIN,78746.0,TRAVIS,3085946.25,10075755.916669698,30.28360185,-97.832284,"(30.28360185, -97.832284)",,583J,ME23
105130,14-00100084,Coyote Complaints,Phone,Closed,05/26/2014 01:47:46 PM,05/25/2014 11:44:28 AM,05/26/2014 01:47:47 PM,05/26/2014 01:47:46 PM,"8110 FM 2222 RD 36 33, AUSTIN, TX",8110.0,2222,AUSTIN,78730.0,TRAVIS,3092971.86600535,10110915.807714699,30.37981639,-97.80750232,"(30.37981639, -97.80750232)",10.0,493Q,MF32
105131,14-00099188,Coyote Complaints,Phone,Closed,05/26/2014 01:46:57 PM,05/23/2014 06:34:11 PM,05/26/2014 01:46:58 PM,05/26/2014 01:46:57 PM,"6209 LEDGE MOUNTAIN DR, AUSTIN, TX",6209.0,LEDGE MOUNTAIN,AUSTIN,78731.0,TRAVIS,3103212.91238559,10100643.219618302,30.35093488,-97.77578206,"(30.35093488, -97.77578206)",10.0,524K,MG29
105132,14-00099174,Coyote Complaints,Phone,Duplicate (closed),05/26/2014 01:44:47 PM,05/23/2014 06:05:02 PM,05/26/2014 01:44:47 PM,05/26/2014 01:44:47 PM,"2203 GRISWOLD LN, AUSTIN, TX",2203.0,GRISWOLD,AUSTIN,78703.0,TRAVIS,3107129.40591663,10078995.833936699,30.29118095,-97.76495301,"(30.29118095, -97.76495301)",10.0,584G,MH24
105134,14-00099152,Coyote Complaints,Phone,Closed,05/26/2014 01:44:15 PM,05/23/2014 05:38:40 PM,05/26/2014 01:44:17 PM,05/26/2014 01:44:15 PM,"ENFIELD TO MOPAC NB RAMP, AUSTIN, TX",,ENFIELD TO MOPAC NB,AUSTIN,78703.0,TRAVIS,3107828.80117662,10077456.3616965,30.28690474,-97.76285032,"(30.28690474, -97.76285032)",9.0,584G,MH24
105365,14-00098617,Coyote Complaints,Phone,Closed,05/24/2014 04:58:25 PM,05/23/2014 07:31:34 AM,05/24/2014 04:58:25 PM,05/24/2014 04:58:25 PM,"4100 WESTBANK DR, WEST LAKE HILLS, TX",4100.0,WESTBANK,WEST LAKE HILLS,78746.0,TRAVIS,3091251.13,10073219.6,30.27630078,-97.81566338,"(30.27630078, -97.81566338)",,583P,ME23
105366,14-00097697,Coyote Complaints,Phone,Closed,05/24/2014 04:58:03 PM,05/21/2014 11:06:19 PM,05/24/2014 04:58:03 PM,05/24/2014 04:58:03 PM,"1804 TREADWELL ST, AUSTIN, TX",1804.0,TREADWELL,AUSTIN,78704.0,TRAVIS,3106830.36923279,10067236.322203599,30.25887469,-97.7667598,"(30.25887469, -97.7667598)",5.0,614C,MH21
105367,14-00097625,Coyote Complaints,Phone,Closed,05/24/2014 04:57:40 PM,05/21/2014 08:16:46 PM,05/24/2014 04:57:41 PM,05/24/2014 04:57:40 PM,"1806 KERR ST, AUSTIN, TX",1806.0,KERR,AUSTIN,78704.0,TRAVIS,3106877.27324321,10067566.77075,30.25978007,-97.76658713,"(30.25978007, -97.76658713)",5.0,614C,MH21
106426,14-00042389,Coyote Complaints,Phone,Closed,05/21/2014 03:29:35 PM,03/11/2014 10:35:28 PM,05/21/2014 03:29:36 PM,05/21/2014 03:29:35 PM,"4109 FIRSTVIEW DR, AUSTIN, TX",4109.0,FIRSTVIEW,AUSTIN,78731.0,TRAVIS,3104998.66519364,10099877.263064802,30.34871636,-97.77017799,"(30.34871636, -97.77017799)",10.0,524Q,MH29
106581,14-00043326,Coyote Complaints,Phone,Closed,05/21/2014 03:30:51 PM,03/13/2014 10:31:51 AM,05/21/2014 03:30:52 PM,05/21/2014 03:30:51 PM,"9206 AMBERWOOD CV, AUSTIN, TX",9206.0,AMBERWOOD,AUSTIN,78759.0,TRAVIS,3108146.79094705,10115690.2591615,30.3919844,-97.75904009,"(30.3919844, -97.75904009)",10.0,494H,MH33
106587,14-00040884,Coyote Complaints,Phone,Closed,05/21/2014 03:16:22 PM,03/10/2014 08:06:36 AM,05/21/2014 03:16:22 PM,05/21/2014 03:16:22 PM,"4000 ENCLAVE MESA CIR, AUSTIN, TX",4000.0,ENCLAVE MESA,AUSTIN,78731.0,TRAVIS,3106833.5,10104921.0,30.36246457,-97.76399325,"(30.36246457, -97.76399325)",10.0,524C,MH30
106588,14-00061207,Coyote Complaints,Phone,Closed,05/21/2014 03:15:49 PM,04/06/2014 07:16:45 PM,05/21/2014 03:15:50 PM,05/21/2014 03:15:49 PM,"4814 CANYONBEND CIR, AUSTIN, TX",4814.0,CANYONBEND,AUSTIN,78735.0,TRAVIS,3088499.1263653,10060716.0750389,30.24210092,-97.82527231,"(30.24210092, -97.82527231)",8.0,613N,ME20
106738,14-00096075,Coyote Complaints,Phone,Closed,05/21/2014 09:11:49 AM,05/19/2014 07:47:44 PM,05/21/2014 09:11:50 AM,05/21/2014 09:11:49 AM,"7013 RIVER PLACE BLVD, AUSTIN, TX",7013.0,RIVER PLACE,AUSTIN,78726.0,TRAVIS,3081033.0131197004,10117585.0332113,30.39888928,-97.84488184,"(30.39888928, -97.84488184)",6.0,492C,MD33
106739,14-00095603,Coyote Complaints,Phone,Closed,05/21/2014 09:11:22 AM,05/19/2014 01:00:29 PM,05/21/2014 09:11:23 AM,05/21/2014 09:11:22 AM,"3209 RAIN DANCE CV, AUSTIN, TX",3209.0,RAIN DANCE,AUSTIN,78746.0,TRAVIS,3099819.88196202,10088885.5416835,30.31882845,-97.78738951,"(30.31882845, -97.78738951)",,554J,MG26
106740,14-00096175,Coyote Complaints,Phone,Closed,05/21/2014 09:10:48 AM,05/19/2014 11:10:18 PM,05/21/2014 09:10:48 AM,05/21/2014 09:10:48 AM,"1505 WINDSOR RD, AUSTIN, TX",1505.0,WINDSOR,AUSTIN,78703.0,TRAVIS,3110797.96981793,10075234.4543055,30.28060807,-97.75360893,"(30.28060807, -97.75360893)",9.0,584M,MH23
107321,14-00095185,Coyote Complaints,Phone,Closed,05/19/2014 12:41:20 PM,05/19/2014 06:40:15 AM,05/19/2014 12:41:21 PM,05/19/2014 12:41:20 PM,"1408 WATHEN AVE, AUSTIN, TX",1408.0,WATHEN,AUSTIN,78703.0,TRAVIS,3110461.41089623,10080079.136045402,30.29394685,-97.75431908,"(30.29394685, -97.75431908)",9.0,584D,MH24
107322,14-00093761,Coyote Complaints,Phone,Closed,05/19/2014 12:40:45 PM,05/17/2014 07:42:34 AM,05/19/2014 12:40:46 PM,05/19/2014 12:40:45 PM,"8020 LONG CANYON DR, AUSTIN, TX",8020.0,LONG CANYON,AUSTIN,78730.0,TRAVIS,3092253.65361177,10108546.0196051,30.373346899999998,-97.80994989,"(30.3733469, -97.80994989)",10.0,493U,MF31
107323,14-00093674,Coyote Complaints,Phone,Closed,05/19/2014 12:39:30 PM,05/16/2014 10:23:36 PM,05/19/2014 12:39:30 PM,05/19/2014 12:39:30 PM,"N MOPAC EXPY SVRD SB & NORTHLAND DR, AUSTIN, TX",,N MOPAC EXPY SVRD SB & NORTHLAND DR,AUSTIN,78731.0,TRAVIS,3109582.33,10095642.34,30.33678393,-97.75596129,"(30.33678393, -97.75596129)",10.0,524Z,MH28
107324,14-00093641,Coyote Complaints,Phone,Closed,05/19/2014 12:38:55 PM,05/16/2014 09:34:18 PM,05/19/2014 12:38:55 PM,05/19/2014 12:38:55 PM,"9020 TUSCANY WAY, AUSTIN, TX",9020.0,TUSCANY,AUSTIN,78754.0,TRAVIS,3139399.25656154,10096704.9601286,30.33777071,-97.66139039,"(30.33777071, -97.66139039)",1.0,527W,MN28
107325,14-00093351,Coyote Complaints,Phone,Closed,05/19/2014 12:38:24 PM,05/16/2014 03:03:37 PM,05/19/2014 12:38:25 PM,05/19/2014 12:38:24 PM,"3100 RIVA RIDGE RD, AUSTIN, TX",3100.0,RIVA RIDGE,AUSTIN,78746.0,TRAVIS,3093273.06047339,10091892.9528083,30.32750577,-97.80791683,"(30.32750577, -97.80791683)",10.0,553C,MF27
107794,14-00051905,Coyote Complaints,Phone,Closed,05/17/2014 07:25:37 AM,03/24/2014 09:59:21 PM,05/17/2014 07:25:37 AM,05/17/2014 07:25:37 AM,"4610 RIDGE OAK DR, AUSTIN, TX",4610.0,RIDGE OAK,AUSTIN,78731.0,TRAVIS,3106019.7076097,10093715.1048592,30.33171266,-97.76739241,"(30.33171266, -97.76739241)",10.0,554C,MH27
107872,14-00040528,Coyote Complaints,Phone,Closed,05/16/2014 09:51:03 AM,03/09/2014 03:13:54 PM,05/16/2014 09:51:04 AM,05/16/2014 09:51:03 AM,"SOUTHWEST PKWY &W SH 71, AUSTIN, TX",,SOUTHWEST PKWY &W SH 71,AUSTIN,78735.0,TRAVIS,3060165.75,10072203.0,30.27540268,-97.91418655,"(30.27540268, -97.91418655)",8.0,581N,MA23
107889,14-00044604,Coyote Complaints,Phone,Closed,05/16/2014 03:44:52 PM,03/14/2014 10:02:37 PM,05/16/2014 03:44:53 PM,05/16/2014 03:44:52 PM,"1746 CHANNEL RD, AUSTIN, TX",1746.0,CHANNEL,AUSTIN,78746.0,TRAVIS,3098619.78193419,10097847.7513035,30.34353997,-97.79054281,"(30.34353997, -97.79054281)",10.0,524S,MG28
107890,14-00043173,Coyote Complaints,Phone,Closed,05/16/2014 03:36:07 PM,03/13/2014 03:44:31 AM,05/16/2014 03:36:07 PM,05/16/2014 03:36:07 PM,"11613 N FM 620 RD, AUSTIN, TX",11613.0,620,AUSTIN,78750.0,WILLIAMSON,3086667.57845652,10138354.259270301,30.45563425,-97.82552872,"(30.45563425, -97.82552872)",6.0,433J,ME38
107891,14-00043498,Coyote Complaints,Phone,Closed,05/16/2014 03:33:42 PM,03/13/2014 02:00:25 PM,05/16/2014 03:33:43 PM,05/16/2014 03:33:42 PM,"1920 MATAGORDA ST, AUSTIN, TX",1920.0,MATAGORDA,AUSTIN,78741.0,TRAVIS,3116383.75,10059446.0,30.23685078,-97.73708486,"(30.23685078, -97.73708486)",9.0,615T,MJ19
107892,14-00051505,Coyote Complaints,Phone,Closed,05/16/2014 03:33:14 PM,03/24/2014 01:42:28 PM,05/16/2014 03:33:15 PM,05/16/2014 03:33:14 PM,"4404 SACRED ARROW DR, AUSTIN, TX",4404.0,SACRED ARROW,AUSTIN,78735.0,TRAVIS,3089378.11033894,10063304.593081402,30.24916194,-97.82230442,"(30.24916194, -97.82230442)",8.0,613K,ME20
107893,14-00044767,Coyote Complaints,Phone,Closed,05/16/2014 03:32:37 PM,03/15/2014 10:02:14 AM,05/16/2014 03:32:37 PM,05/16/2014 03:32:37 PM,"3201 GREENLEE DR, AUSTIN, TX",3201.0,GREENLEE,AUSTIN,78703.0,TRAVIS,3105209.50745571,10083183.0330962,30.30281273,-97.77072885,"(30.30281273, -97.77072885)",10.0,554Y,MH25
107896,14-00042243,Coyote Complaints,Phone,Closed,05/16/2014 03:32:03 PM,03/11/2014 07:13:31 PM,05/16/2014 03:32:03 PM,05/16/2014 03:32:03 PM,"HIGHLAND VIEW DR & HIGHLAND HILLS DR, AUSTIN, TX",,HIGHLAND VIEW DR & HIGHLAND HILLS DR,AUSTIN,78731.0,TRAVIS,3108924.25,10098944.0,30.34590166,-97.7578045,"(30.34590166, -97.7578045)",10.0,524R,MH29
107898,14-00093107,Coyote Complaints,Phone,Closed,05/16/2014 03:31:24 PM,05/16/2014 10:02:59 AM,05/16/2014 03:31:24 PM,05/16/2014 03:31:24 PM,"11350 FOUR POINTS DR, AUSTIN, TX",11350.0,FOUR POINTS,AUSTIN,78726.0,TRAVIS,3079973.03904275,10119697.4365468,30.40476126,-97.84809352,"(30.40476126, -97.84809352)",6.0,462Y,MD34
107943,14-00040990,Coyote Complaints,Phone,Closed,05/16/2014 01:41:43 PM,03/10/2014 10:35:03 AM,05/16/2014 01:41:44 PM,05/16/2014 01:41:43 PM,"1301 MATTHEWS LN, AUSTIN, TX",1301.0,MATTHEWS,AUSTIN,78745.0,TRAVIS,3096734.71305744,10044343.948452199,30.19658297,-97.80037898,"(30.19658297, -97.80037898)",5.0,643Z,MF16
108020,14-00040009,Coyote Complaints,Phone,Closed,05/16/2014 09:46:49 AM,03/08/2014 01:17:44 PM,05/16/2014 09:46:50 AM,05/16/2014 09:46:49 AM,"STONERIDGE RD & CETONA CT, AUSTIN, TX",,STONERIDGE RD & CETONA CT,AUSTIN,78746.0,TRAVIS,3093695.45,10069015.92,30.26459303,-97.80822419,"(30.26459303, -97.80822419)",8.0,583Y,MF22
108026,14-00039292,Coyote Complaints,Phone,Closed,05/16/2014 09:34:33 AM,03/07/2014 07:59:58 AM,05/16/2014 09:34:34 AM,05/16/2014 09:34:33 AM,"9105 PRINCE WILLIAM, AUSTIN, TX",9105.0,PRINCE WILLIAM,AUSTIN,78730.0,TRAVIS,3083968.70687353,10104503.8058152,30.36274922,-97.83650352,"(30.36274922, -97.83650352)",10.0,522D,MD30
108027,14-00038559,Coyote Complaints,Phone,Closed,05/16/2014 09:34:07 AM,03/05/2014 10:05:51 PM,05/16/2014 09:34:07 AM,05/16/2014 09:34:07 AM,"810 E SLAUGHTER LN 9 1ST 9108, AUSTIN, TX",810.0,SLAUGHTER,AUSTIN,78744.0,TRAVIS,3104654.7116891,10031102.684403801,30.15968654,-97.77627962,"(30.15968654, -97.77627962)",2.0,674X,MG13
108028,14-00078413,Coyote Complaints,Phone,Closed,05/16/2014 09:33:31 AM,04/27/2014 10:14:42 AM,05/16/2014 09:33:32 AM,05/16/2014 09:33:31 AM,"4206 TURKEY CREEK DR, AUSTIN, TX",4206.0,TURKEY CREEK,AUSTIN,78730.0,TRAVIS,3083323.25514162,10102916.829615401,30.35842658,-97.83866243,"(30.35842658, -97.83866243)",10.0,522H,MD30
108029,14-00077980,Coyote Complaints,Phone,Closed,05/16/2014 09:32:05 AM,04/26/2014 06:32:45 PM,05/16/2014 09:32:06 AM,05/16/2014 09:32:05 AM,"PRINCE WILLIAM & WESTMINSTER GLEN AVE, AUSTIN, TX",,PRINCE WILLIAM & WESTMINSTER GLEN AVE,AUSTIN,78730.0,TRAVIS,3082403.5,10105415.0,30.36535051,-97.84140048,"(30.36535051, -97.84140048)",10.0,522D,MD30
108030,14-00078498,Coyote Complaints,Phone,Closed,05/16/2014 09:31:12 AM,04/27/2014 12:46:38 PM,05/16/2014 09:31:13 AM,05/16/2014 09:31:12 AM,"2606 WHELESS LN, AUSTIN, TX",2606.0,WHELESS,AUSTIN,78723.0,TRAVIS,3133412.42876904,10086227.907314,30.30936515,-97.68115470000001,"(30.30936515, -97.6811547)",1.0,556Q,MM26
108031,14-00051506,Coyote Complaints,Phone,Closed,05/16/2014 09:30:49 AM,03/24/2014 01:44:21 PM,05/16/2014 09:30:50 AM,05/16/2014 09:30:49 AM,"4404 SACRED ARROW DR, AUSTIN, TX",4404.0,SACRED ARROW,AUSTIN,78735.0,TRAVIS,3089378.11033894,10063304.593081402,30.24916194,-97.82230442,"(30.24916194, -97.82230442)",8.0,613K,ME20
108032,14-00078133,Coyote Complaints,Phone,Closed,05/16/2014 09:30:23 AM,04/26/2014 09:50:01 PM,05/16/2014 09:30:24 AM,05/16/2014 09:30:23 AM,"6805 WOOD HOLLOW DR, AUSTIN, TX",6805.0,WOOD HOLLOW,AUSTIN,78731.0,TRAVIS,3109866.128938,10100740.316100301,30.35077949,-97.75468734,"(30.35077949, -97.75468734)",10.0,524M,MH29
108034,14-00078463,Coyote Complaints,Phone,Closed,05/16/2014 09:29:53 AM,04/27/2014 11:41:20 AM,05/16/2014 09:29:53 AM,05/16/2014 09:29:53 AM,"SILVERMINE DR & SCENIC BROOK DR, AUSTIN, TX",,SILVERMINE DR & SCENIC BROOK DR,AUSTIN,78736.0,TRAVIS,3067629.5,10058921.0,30.23844301,-97.89147134,"(30.23844301, -97.89147134)",8.0,611U,MB19
108035,14-00078827,Coyote Complaints,Phone,Closed,05/16/2014 09:28:57 AM,04/27/2014 09:06:52 PM,05/16/2014 09:28:58 AM,05/16/2014 09:28:57 AM,"1701 REAL WIND CV, AUSTIN, TX",1701.0,REAL WIND,AUSTIN,78746.0,TRAVIS,3091141.67861922,10088175.6084985,30.31742003,-97.81493748,"(30.31742003, -97.81493748)",10.0,553K,ME26
108036,14-00078863,Coyote Complaints,Phone,Closed,05/16/2014 09:28:01 AM,04/27/2014 10:24:49 PM,05/16/2014 09:28:01 AM,05/16/2014 09:28:01 AM,"8609 MENDOCINO DR, AUSTIN, TX",8609.0,MENDOCINO,AUSTIN,78735.0,TRAVIS,3074027.64,10076105.08,30.28529285,-97.87001047,"(30.28529285, -97.87001047)",,582J,MC23
108037,14-00093050,Coyote Complaints,Phone,Closed,05/16/2014 09:22:52 AM,05/16/2014 09:17:17 AM,05/16/2014 09:22:53 AM,05/16/2014 09:22:52 AM,"1708 W 10TH ST, AUSTIN, TX",1708.0,10TH,AUSTIN,78703.0,TRAVIS,3108056.0709458,10075057.5752069,30.28029638,-97.7623061,"(30.28029638, -97.7623061)",9.0,584L,MH23
108038,14-00092940,Coyote Complaints,Phone,Closed,05/16/2014 09:22:17 AM,05/16/2014 12:03:23 AM,05/16/2014 09:22:18 AM,05/16/2014 09:22:17 AM,"W 14TH ST & COLORADO ST, AUSTIN, TX",,W 14TH ST & COLORADO ST,AUSTIN,78701.0,TRAVIS,3114750.5,10073775.0,30.27634364,-97.74119814,"(30.27634364, -97.74119814)",1.0,585N,MJ23
108039,14-00091639,Coyote Complaints,Phone,Closed,05/16/2014 09:21:49 AM,05/14/2014 10:12:09 AM,05/16/2014 09:21:49 AM,05/16/2014 09:21:49 AM,"2519 BITTER CREEK DR, AUSTIN, TX",2519.0,BITTER CREEK,AUSTIN,78744.0,TRAVIS,3111415.7978416,10039399.0119716,30.18206266,-97.75428399,"(30.18206266, -97.75428399)",2.0,674H,MH15
109127,14-00086014,Coyote Complaints,Phone,Closed,05/12/2014 10:22:06 AM,05/07/2014 12:12:32 AM,05/12/2014 10:22:07 AM,05/12/2014 10:22:06 AM,"2600 INRIDGE DR, AUSTIN, TX",2600.0,INRIDGE,AUSTIN,78745.0,TRAVIS,3090706.91077753,10045768.5894857,30.20087506,-97.81935213,"(30.20087506, -97.81935213)",5.0,643T,ME16
109144,14-00085197,Coyote Complaints,Phone,Closed,05/12/2014 10:24:11 AM,05/06/2014 01:00:09 AM,05/12/2014 10:24:12 AM,05/12/2014 10:24:11 AM,"4500 STEINER RANCH BLVD, AUSTIN, TX",4500.0,STEINER RANCH,AUSTIN,78732.0,TRAVIS,3071296.15333581,10110980.2382315,30.38132825,-97.87622196,"(30.38132825, -97.87622196)",,491R,MB32
109145,14-00085681,Coyote Complaints,Phone,Closed,05/12/2014 10:23:37 AM,05/06/2014 04:22:24 PM,05/12/2014 10:23:38 AM,05/12/2014 10:23:37 AM,"4902 SHOAL CREEK BLVD, AUSTIN, TX",4902.0,SHOAL CREEK,AUSTIN,78756.0,TRAVIS,3113216.71414241,10090467.330486901,30.32232655,-97.74482539,"(30.32232655, -97.74482539)",7.0,555E,MJ27
109147,14-00086135,Coyote Complaints,Phone,Closed,05/12/2014 10:21:04 AM,05/07/2014 08:44:40 AM,05/12/2014 10:21:05 AM,05/12/2014 10:21:04 AM,"8110 FM 2222 RD 27 83, AUSTIN, TX",8110.0,2222,AUSTIN,78730.0,TRAVIS,3092971.86600535,10110915.807714699,30.37981639,-97.80750232,"(30.37981639, -97.80750232)",10.0,493Q,MF32
109148,14-00086442,Coyote Complaints,Phone,Closed,05/12/2014 10:20:27 AM,05/07/2014 02:35:58 PM,05/12/2014 10:20:28 AM,05/12/2014 10:20:27 AM,"5703 SPURFLOWER DR, AUSTIN, TX",5703.0,SPURFLOWER,AUSTIN,78759.0,TRAVIS,3104942.58540497,10115553.1065524,30.39181085,-97.76921031,"(30.39181085, -97.76921031)",10.0,494G,MH33
109151,14-00086490,Coyote Complaints,Phone,Closed,05/12/2014 10:19:53 AM,05/07/2014 03:34:15 PM,05/12/2014 10:19:53 AM,05/12/2014 10:19:53 AM,"2002 CRYSTAL SHORE DR, AUSTIN, TX",2002.0,CRYSTAL SHORE,AUSTIN,78728.0,TRAVIS,3133150.66500267,10134043.0019916,30.44081755,-97.67836789,"(30.44081755, -97.67836789)",,436Y,MM37
109152,14-00087054,Coyote Complaints,Phone,Closed,05/12/2014 10:18:48 AM,05/08/2014 10:41:36 AM,05/12/2014 10:18:48 AM,05/12/2014 10:18:48 AM,"6726 JESTER BLVD, AUSTIN, TX",6726.0,JESTER,AUSTIN,78750.0,TRAVIS,3095755.74422825,10108285.7794883,30.37241264,-97.79886602,"(30.37241264, -97.79886602)",10.0,493Z,MF31
109154,14-00087417,Coyote Complaints,Phone,Closed,05/12/2014 10:16:02 AM,05/08/2014 05:02:10 PM,05/12/2014 10:16:02 AM,05/12/2014 10:16:02 AM,"MARCUS ABRAMS BLVD & FRATE BARKER RD, AUSTIN, TX",,MARCUS ABRAMS BLVD & FRATE BARKER RD,AUSTIN,78748.0,TRAVIS,3083481.01000001,10026939.37,30.14956272,-97.84355362,"(30.14956272, -97.84355362)",,702H,MD12
109155,14-00087854,Coyote Complaints,Phone,Closed,05/12/2014 10:15:32 AM,05/09/2014 11:00:19 AM,05/12/2014 10:15:33 AM,05/12/2014 10:15:32 AM,"1606 KERR ST, AUSTIN, TX",1606.0,KERR,AUSTIN,78704.0,TRAVIS,3107588.96316648,10067173.5885915,30.2586541,-97.76436229,"(30.2586541, -97.76436229)",5.0,614C,MH21
109156,14-00088019,Coyote Complaints,Phone,Closed,05/12/2014 10:14:55 AM,05/09/2014 02:35:11 PM,05/12/2014 10:14:55 AM,05/12/2014 10:14:55 AM,"10616 MELLOW MEADOWS, AUSTIN, TX",10616.0,MELLOW MEADOWS,AUSTIN,78750.0,WILLIAMSON,3094381.34808245,10140439.2212915,30.46088516,-97.80090225,"(30.46088516, -97.80090225)",6.0,433M,MF38
109157,14-00088546,Coyote Complaints,Phone,Closed,05/12/2014 10:14:24 AM,05/10/2014 08:40:05 AM,05/12/2014 10:14:24 AM,05/12/2014 10:14:24 AM,"5208 FORT BENTON DR, AUSTIN, TX",5208.0,FORT BENTON,AUSTIN,78735.0,TRAVIS,3071034.03485277,10065312.17,30.25580589,-97.88024658,"(30.25580589, -97.88024658)",8.0,611H,MB21
109160,14-00088555,Coyote Complaints,Phone,Closed,05/12/2014 10:10:58 AM,05/10/2014 09:08:26 AM,05/12/2014 10:10:58 AM,05/12/2014 10:10:58 AM,"FM 2222 RD & MESA DR, AUSTIN, TX",,FM 2222 RD & MESA DR,AUSTIN,78731.0,TRAVIS,3105230.3,10097189.2,30.34131254,-97.76964021,"(30.34131254, -97.76964021)",10.0,524U,MH28
109161,14-00089078,Coyote Complaints,Phone,Closed,05/12/2014 10:10:30 AM,05/10/2014 09:18:21 PM,05/12/2014 10:10:31 AM,05/12/2014 10:10:30 AM,"1100 KINGSBURY ST, AUSTIN, TX",1100.0,KINGSBURY,AUSTIN,78703.0,TRAVIS,3111445.84675521,10075377.5372084,30.28096006,-97.75154644,"(30.28096006, -97.75154644)",9.0,584M,MH23
109164,14-00089097,Coyote Complaints,Phone,Closed,05/12/2014 10:06:45 AM,05/10/2014 09:42:36 PM,05/12/2014 10:06:45 AM,05/12/2014 10:06:45 AM,"4157 CANYON GLEN CIR, AUSTIN, TX",4157.0,CANYON GLEN,AUSTIN,78732.0,TRAVIS,3068166.29344701,10110365.046744501,30.37982681,-97.88618846,"(30.37982681, -97.88618846)",,491Q,MB32
109165,14-00089155,Coyote Complaints,Phone,Closed,05/12/2014 10:06:07 AM,05/10/2014 11:04:23 PM,05/12/2014 10:06:07 AM,05/12/2014 10:06:07 AM,"ROBERT E LEE RD & BARTON HILLS DR, AUSTIN, TX",,ROBERT E LEE RD & BARTON HILLS DR,AUSTIN,78704.0,TRAVIS,3105529.75,10067910.0,30.26080897,-97.77082909,"(30.26080897, -97.77082909)",5.0,614C,MH21
109167,14-00089157,Coyote Complaints,Phone,Closed,05/12/2014 10:04:08 AM,05/10/2014 11:07:23 PM,05/12/2014 10:04:08 AM,05/12/2014 10:04:08 AM,"E 10TH ST &N IH 35 SVRD SB, AUSTIN, TX",,E 10TH ST &N IH 35 SVRD SB,AUSTIN,78701.0,TRAVIS,3117190.5,10071384.0,30.26961461,-97.73364749,"(30.26961461, -97.73364749)",9.0,585T,MJ22
109168,14-00089376,Coyote Complaints,Phone,Closed,05/12/2014 09:56:24 AM,05/11/2014 10:29:45 AM,05/12/2014 09:56:25 AM,05/12/2014 09:56:24 AM,"4703 FAWNWOOD CV, AUSTIN, TX",4703.0,FAWNWOOD,AUSTIN,78735.0,TRAVIS,3088392.5463897004,10061524.0818806,30.24432865,-97.82555206,"(30.24432865, -97.82555206)",8.0,613N,ME20
109180,14-00089733,Coyote Complaints,Phone,Closed,05/12/2014 09:21:45 AM,05/11/2014 08:10:05 PM,05/12/2014 09:21:46 AM,05/12/2014 09:21:45 AM,"3804 WILLIAMSBURG CIR, AUSTIN, TX",3804.0,WILLIAMSBURG,AUSTIN,78731.0,TRAVIS,3109772.04232778,10106724.3609211,30.36723482,-97.75454579,"(30.36723482, -97.75454579)",10.0,524D,MH30
109183,14-00089757,Coyote Complaints,Phone,Closed,05/12/2014 09:16:50 AM,05/11/2014 08:56:11 PM,05/12/2014 09:16:50 AM,05/12/2014 09:16:50 AM,"3806 WILLIAMSBURG CIR, AUSTIN, TX",3806.0,WILLIAMSBURG,AUSTIN,78731.0,TRAVIS,3109767.40000001,10106820.87,30.36750041,-97.75455341,"(30.36750041, -97.75455341)",10.0,524D,MH30
109187,14-00089795,Coyote Complaints,Phone,Closed,05/12/2014 09:03:58 AM,05/11/2014 10:20:12 PM,05/12/2014 09:03:59 AM,05/12/2014 09:03:58 AM,"WESTOVER RD & JEFFERSON ST, AUSTIN, TX",,WESTOVER RD & JEFFERSON ST,AUSTIN,78703.0,TRAVIS,3109671.5,10082003.0,30.29928561,-97.75668007,"(30.29928561, -97.75668007)",9.0,554Z,MH25
109323,14-00084648,Coyote Complaints,Phone,Closed,05/10/2014 02:25:22 PM,05/05/2014 01:32:46 PM,05/10/2014 02:25:23 PM,05/10/2014 02:25:22 PM,"2602 OAKDALE CT, AUSTIN, TX",2602.0,OAKDALE,AUSTIN,78703.0,TRAVIS,3104902.95964541,10083421.588304,30.303487899999997,-97.77168258,"(30.3034879, -97.77168258)",10.0,554T,MG25
110624,14-00077073,Coyote Complaints,Phone,Closed,05/07/2014 08:13:04 AM,04/25/2014 05:51:54 PM,05/07/2014 08:13:05 AM,05/07/2014 08:13:04 AM,"1366 LOST CREEK BLVD, AUSTIN, TX",1366.0,LOST CREEK,AUSTIN,78746.0,TRAVIS,3084402.04556303,10076028.7416206,30.28444718,-97.83715568,"(30.28444718, -97.83715568)",,582M,MD23
110626,14-00075067,Coyote Complaints,Phone,Closed,05/07/2014 08:12:24 AM,04/23/2014 12:07:49 PM,05/07/2014 08:12:24 AM,05/07/2014 08:12:24 AM,"6206 BREEZE WAY, AUSTIN, TX",6206.0,BREEZE,AUSTIN,78723.0,TRAVIS,3134426.61536249,10086289.9644038,30.30946922,-97.67793695,"(30.30946922, -97.67793695)",1.0,556Q,MM26
111193,14-00081005,Coyote Complaints,Phone,Closed,05/05/2014 09:57:18 AM,04/30/2014 10:55:24 AM,05/05/2014 09:57:19 AM,05/05/2014 09:57:18 AM,"7404 FILBERT CV, AUSTIN, TX",7404.0,FILBERT,AUSTIN,78750.0,TRAVIS,3095586.06881741,10110969.6839951,30.37980103,-97.79921007,"(30.37980103, -97.79921007)",10.0,493R,MF32
111212,14-00084251,Coyote Complaints,Phone,Closed,05/05/2014 11:17:16 AM,05/05/2014 12:28:25 AM,05/05/2014 11:17:17 AM,05/05/2014 11:17:16 AM,"2511 QUARRY RD, AUSTIN, TX",2511.0,QUARRY,AUSTIN,78703.0,TRAVIS,3104770.09689533,10077722.7194025,30.28783088,-97.77251916,"(30.28783088, -97.77251916)",10.0,584F,MG24
111213,14-00079861,Coyote Complaints,Phone,Closed,05/05/2014 11:16:20 AM,04/28/2014 06:51:06 PM,05/05/2014 11:16:21 AM,05/05/2014 11:16:20 AM,"11300 BARRINGTON WAY, AUSTIN, TX",11300.0,BARRINGTON,AUSTIN,78759.0,TRAVIS,3102854.02219691,10127891.259661999,30.42585916,-97.77493298,"(30.42585916, -97.77493298)",10.0,464K,MG35
111214,14-00080697,Coyote Complaints,Phone,Closed,05/05/2014 11:15:35 AM,04/29/2014 08:59:17 PM,05/05/2014 11:15:35 AM,05/05/2014 11:15:35 AM,"DEERFOOT TRL & BARTON HILLS DR, AUSTIN, TX",,DEERFOOT TRL & BARTON HILLS DR,AUSTIN,78704.0,TRAVIS,3102913.88,10067176.15,30.25895712,-97.77916585,"(30.25895712, -97.77916585)",5.0,614B,MG21
111215,14-00080797,Coyote Complaints,Phone,Closed,05/05/2014 11:13:15 AM,04/30/2014 01:43:03 AM,05/05/2014 11:13:15 AM,05/05/2014 11:13:15 AM,"5404 SHOAL CREEK BLVD, AUSTIN, TX",5404.0,SHOAL CREEK,AUSTIN,78756.0,TRAVIS,3112847.2897463,10092878.291136399,30.32897756,-97.74581821,"(30.32897756, -97.74581821)",7.0,555A,MJ27
111216,14-00080901,Coyote Complaints,Phone,Closed,05/05/2014 11:11:29 AM,04/30/2014 09:21:41 AM,05/05/2014 11:11:30 AM,05/05/2014 11:11:29 AM,"REPUBLIC OF TEXAS BLVD & TRAVIS GREEN LN, AUSTIN, TX",,REPUBLIC OF TEXAS BLVD & TRAVIS GREEN LN,AUSTIN,78735.0,TRAVIS,3083394.75,10063786.0,30.25085521,-97.84121507,"(30.25085521, -97.84121507)",8.0,612H,MD21
111218,14-00081002,Coyote Complaints,Phone,Closed,05/05/2014 11:08:40 AM,04/30/2014 10:52:02 AM,05/05/2014 11:08:40 AM,05/05/2014 11:08:40 AM,"2804 MECCA RD, AUSTIN, TX",2804.0,MECCA,AUSTIN,78733.0,TRAVIS,3076946.55585268,10099509.0821692,30.34945052,-97.85911588,"(30.34945052, -97.85911588)",,522P,MC29
111262,14-00081102,Coyote Complaints,Phone,Closed,05/05/2014 09:56:40 AM,04/30/2014 01:19:31 PM,05/05/2014 09:56:40 AM,05/05/2014 09:56:40 AM,"512 LELAND ST, AUSTIN, TX",512.0,LELAND,AUSTIN,78704.0,TRAVIS,3112929.05728624,10061102.1295384,30.24162443,-97.74789979,"(30.24162443, -97.74789979)",9.0,615N,MJ20
111263,14-00081393,Coyote Complaints,Phone,Closed,05/05/2014 09:55:57 AM,04/30/2014 06:33:03 PM,05/05/2014 09:55:57 AM,05/05/2014 09:55:57 AM,"4802 BROKEN BOW PASS, AUSTIN, TX",4802.0,BROKEN BOW,AUSTIN,78745.0,TRAVIS,3097801.99636936,10054947.9920656,30.22566517,-97.79623609999999,"(30.22566517, -97.7962361)",5.0,643D,MF18
111368,14-00081482,Coyote Complaints,Phone,Closed,05/04/2014 04:05:40 PM,04/30/2014 10:57:28 PM,05/04/2014 04:05:40 PM,05/04/2014 04:05:40 PM,"1804 TREADWELL ST, AUSTIN, TX",1804.0,TREADWELL,AUSTIN,78704.0,TRAVIS,3106830.36923279,10067236.322203599,30.25887469,-97.7667598,"(30.25887469, -97.7667598)",5.0,614C,MH21
111369,14-00081499,Coyote Complaints,Phone,Closed,05/04/2014 04:04:56 PM,05/01/2014 04:29:06 AM,05/04/2014 04:04:57 PM,05/04/2014 04:04:56 PM,"10301 FM 2222 RD, AUSTIN, TX",10301.0,2222,AUSTIN,78730.0,TRAVIS,3083112.87913142,10115166.6435342,30.39211324,-97.83845828,"(30.39211324, -97.83845828)",10.0,492H,MD33
111370,14-00081557,Coyote Complaints,Phone,Closed,05/04/2014 04:04:07 PM,05/01/2014 08:49:50 AM,05/04/2014 04:04:07 PM,05/04/2014 04:04:07 PM,"802 S 1ST ST, AUSTIN, TX",802.0,1ST,AUSTIN,78704.0,TRAVIS,3111442.34994446,10065913.112661,30.254944000000002,-97.75225316,"(30.254944, -97.75225316)",9.0,614H,MH21
111371,14-00081842,Coyote Complaints,Phone,Closed,05/04/2014 04:03:27 PM,05/01/2014 03:51:52 PM,05/04/2014 04:03:27 PM,05/04/2014 04:03:27 PM,"KINNEY AVE & VALERIA ST, AUSTIN, TX",,KINNEY AVE & VALERIA ST,AUSTIN,78704.0,TRAVIS,3105862.75,10063752.0,30.24935812,-97.77007806,"(30.24935812, -97.77007806)",5.0,614L,MH20
111372,14-00081852,Coyote Complaints,Phone,Closed,05/04/2014 04:02:39 PM,05/01/2014 04:00:39 PM,05/04/2014 04:02:39 PM,05/04/2014 04:02:39 PM,"4600 FAR WEST BLVD, AUSTIN, TX",4600.0,FAR WEST,AUSTIN,78731.0,TRAVIS,3102508.37484436,10104315.3219248,30.36107355,-97.77774769,"(30.36107355, -97.77774769)",10.0,524F,MG30
111373,14-00081882,Coyote Complaints,Phone,Closed,05/04/2014 04:01:40 PM,05/01/2014 04:45:30 PM,05/04/2014 04:01:41 PM,05/04/2014 04:01:40 PM,"2003 DEXTER ST, AUSTIN, TX",2003.0,DEXTER,AUSTIN,78704.0,TRAVIS,3105867.03242142,10067448.607994301,30.259519300000004,-97.76979473,"(30.2595193, -97.76979473)",5.0,614C,MH21
111374,14-00082138,Coyote Complaints,Phone,Closed,05/04/2014 04:00:54 PM,05/01/2014 10:04:13 PM,05/04/2014 04:00:55 PM,05/04/2014 04:00:54 PM,"100 E HOME PL, AUSTIN, TX",100.0,HOME,AUSTIN,78753.0,TRAVIS,3128212.38390628,10102970.081872301,30.35572632,-97.69637154,"(30.35572632, -97.69637154)",4.0,526F,ML30
111375,14-00083997,Coyote Complaints,Phone,Closed,05/04/2014 04:00:12 PM,05/04/2014 03:54:22 PM,05/04/2014 04:00:13 PM,05/04/2014 04:00:12 PM,"5901 ROUND TABLE CV, AUSTIN, TX",5901.0,ROUND TABLE,AUSTIN,78746.0,TRAVIS,3093491.32061725,10091464.5314898,30.32631446,-97.80725604,"(30.32631446, -97.80725604)",10.0,553G,MF27
111376,14-00082143,Coyote Complaints,Phone,Closed,05/04/2014 03:59:29 PM,05/01/2014 10:23:00 PM,05/04/2014 03:59:30 PM,05/04/2014 03:59:29 PM,"4157 CANYON GLEN CIR, AUSTIN, TX",4157.0,CANYON GLEN,AUSTIN,78732.0,TRAVIS,3068166.29344701,10110365.046744501,30.37982681,-97.88618846,"(30.37982681, -97.88618846)",,491Q,MB32
111377,14-00082265,Coyote Complaints,Phone,Closed,05/04/2014 03:58:48 PM,05/02/2014 09:30:38 AM,05/04/2014 03:58:49 PM,05/04/2014 03:58:48 PM,"802 S 1ST ST 125, AUSTIN, TX",802.0,1ST,AUSTIN,78704.0,TRAVIS,3111442.34994446,10065913.112661,30.254944000000002,-97.75225316,"(30.254944, -97.75225316)",9.0,614H,MH21
111378,14-00082432,Coyote Complaints,Phone,Closed,05/04/2014 03:54:39 PM,05/02/2014 12:58:26 PM,05/04/2014 03:54:40 PM,05/04/2014 03:54:39 PM,"5100 SUBURBAN DR, AUSTIN, TX",5100.0,SUBURBAN,AUSTIN,78745.0,TRAVIS,3106727.46773054,10048756.1797729,30.20808204,-97.76843513,"(30.20808204, -97.76843513)",3.0,644Q,MH17
111379,14-00082682,Coyote Complaints,Phone,Closed,05/04/2014 03:53:41 PM,05/02/2014 06:07:00 PM,05/04/2014 03:53:41 PM,05/04/2014 03:53:41 PM,"6505 TREADWELL BLVD, AUSTIN, TX",6505.0,TREADWELL,AUSTIN,78757.0,TRAVIS,3112508.63605018,10098709.0790012,30.34502722,-97.74646159999999,"(30.34502722, -97.7464616)",7.0,525N,MJ29
111380,14-00082787,Coyote Complaints,Phone,Closed,05/04/2014 03:52:52 PM,05/02/2014 08:24:11 PM,05/04/2014 03:52:53 PM,05/04/2014 03:52:52 PM,"5302 TURNABOUT LN, AUSTIN, TX",5302.0,TURNABOUT,AUSTIN,78731.0,TRAVIS,3112257.66772032,10092887.907188902,30.32904169,-97.74768590000001,"(30.32904169, -97.7476859)",7.0,555A,MJ27
111381,14-00082795,Coyote Complaints,Phone,Closed,05/04/2014 03:52:01 PM,05/02/2014 08:34:28 PM,05/04/2014 03:52:01 PM,05/04/2014 03:52:01 PM,"802 S 1ST ST, AUSTIN, TX",802.0,1ST,AUSTIN,78704.0,TRAVIS,3111442.34994446,10065913.112661,30.254944000000002,-97.75225316,"(30.254944, -97.75225316)",9.0,614H,MH21
111382,14-00082998,Coyote Complaints,Phone,Closed,05/04/2014 03:50:14 PM,05/03/2014 09:09:37 AM,05/04/2014 03:50:15 PM,05/04/2014 03:50:14 PM,"KNOLLWOOD DR & EDGEFIELD DR, AUSTIN, TX",,KNOLLWOOD DR & EDGEFIELD DR,AUSTIN,78731.0,TRAVIS,3106024.25,10102067.0,30.35467065,-97.76676728,"(30.35467065, -97.76676728)",10.0,524L,MH29
111383,14-00083067,Coyote Complaints,Phone,Closed,05/04/2014 03:49:29 PM,05/03/2014 10:28:27 AM,05/04/2014 03:49:29 PM,05/04/2014 03:49:29 PM,"8811 SENDERA MESA DR, AUSTIN, TX",8811.0,SENDERA MESA,AUSTIN,78749.0,TRAVIS,3078100.22272066,10046130.4118309,30.20264675,-97.85922276,"(30.20264675, -97.85922276)",8.0,642T,MC16
114729,14-00073910,Coyote Complaints,Phone,Closed,04/23/2014 08:22:36 AM,04/21/2014 08:23:44 PM,04/23/2014 08:22:37 AM,04/23/2014 08:22:36 AM,"4157 CANYON GLEN CIR, AUSTIN, TX",4157.0,CANYON GLEN,AUSTIN,78732.0,TRAVIS,3068166.29344701,10110365.046744501,30.37982681,-97.88618846,"(30.37982681, -97.88618846)",,491Q,MB32
114807,14-00074846,Coyote Complaints,Phone,Closed,04/23/2014 08:24:22 AM,04/23/2014 06:59:39 AM,04/23/2014 08:24:22 AM,04/23/2014 08:24:22 AM,"802 S 1ST ST 125, AUSTIN, TX",802.0,1ST,AUSTIN,78704.0,TRAVIS,3111442.34994446,10065913.112661,30.254944000000002,-97.75225316,"(30.254944, -97.75225316)",9.0,614H,MH21
114820,14-00074085,Coyote Complaints,Phone,Closed,04/23/2014 08:23:27 AM,04/22/2014 08:22:07 AM,04/23/2014 08:23:28 AM,04/23/2014 08:23:27 AM,"14400 HARRIS RIDGE BLVD, AUSTIN, TX",14400.0,HARRIS RIDGE,AUSTIN,78660.0,TRAVIS,3143933.87147669,10126790.6121581,30.420170000000002,-97.64471528,"(30.42017, -97.64471528)",,467L,MP35
114821,14-00073582,Coyote Complaints,Phone,Closed,04/23/2014 08:21:17 AM,04/21/2014 02:28:14 PM,04/23/2014 08:21:17 AM,04/23/2014 08:21:17 AM,"7122 LAS VENTANAS DR, AUSTIN, TX",7122.0,LAS VENTANAS,AUSTIN,78731.0,TRAVIS,3103296.68234676,10106242.708124198,30.36632189,-97.77510833,"(30.36632189, -97.77510833)",10.0,524B,MG30
114823,14-00073229,Coyote Complaints,Phone,Closed,04/23/2014 08:12:13 AM,04/21/2014 09:36:01 AM,04/23/2014 08:12:14 AM,04/23/2014 08:12:13 AM,"1108 BLUEBONNET LN, AUSTIN, TX",1108.0,BLUEBONNET,AUSTIN,78704.0,TRAVIS,3105862.12559959,10067358.2898828,30.25927134,-97.76981686,"(30.25927134, -97.76981686)",5.0,614C,MH21
115354,14-00072844,Coyote Complaints,Phone,Closed,04/21/2014 07:52:18 AM,04/20/2014 02:54:02 PM,04/21/2014 07:52:18 AM,04/21/2014 07:52:18 AM,"TOM MILLER ST & VAUGHAN ST, AUSTIN, TX",,TOM MILLER ST & VAUGHAN ST,AUSTIN,78723.0,TRAVIS,3128440.995625,10079155.805,30.29025009,-97.69743585,"(30.29025009, -97.69743585)",9.0,586F,ML24
115356,14-00070982,Coyote Complaints,Phone,Closed,04/21/2014 07:51:39 AM,04/18/2014 09:16:58 AM,04/21/2014 07:51:40 AM,04/21/2014 07:51:39 AM,"10721 GARBACZ DR, AUSTIN, TX",10721.0,GARBACZ,AUSTIN,78748.0,TRAVIS,3089150.18111032,10030655.419250399,30.15942752,-97.82535712,"(30.15942752, -97.82535712)",5.0,673W,ME13
115357,14-00070936,Coyote Complaints,Phone,Closed,04/21/2014 07:50:48 AM,04/18/2014 08:13:26 AM,04/21/2014 07:50:48 AM,04/21/2014 07:50:48 AM,"REPUBLIC OF TEXAS BLVD & SOUTHWEST PKWY, AUSTIN, TX",,REPUBLIC OF TEXAS BLVD & SOUTHWEST PKWY,AUSTIN,78735.0,TRAVIS,3086941.22,10059946.66,30.24008236,-97.83025948,"(30.24008236, -97.83025948)",8.0,613N,ME20
115359,14-00070073,Coyote Complaints,Phone,Open,04/21/2014 07:49:49 AM,04/17/2014 10:10:09 AM,04/21/2014 07:49:49 AM,,"6010 LONESOME VALLEY TRL, AUSTIN, TX",6010.0,LONESOME VALLEY,AUSTIN,78731.0,TRAVIS,3103900.54638821,10099430.0817309,30.34755663,-97.77369107,"(30.34755663, -97.77369107)",10.0,524P,MG29
115360,14-00069903,Coyote Complaints,Phone,Closed,04/21/2014 07:49:07 AM,04/17/2014 06:47:24 AM,04/21/2014 07:49:08 AM,04/21/2014 07:49:07 AM,"6606 BETTY COOK DR, AUSTIN, TX",6606.0,BETTY COOK,AUSTIN,78723.0,TRAVIS,3135902.0356104,10087328.7618494,30.31222776,-97.67318393,"(30.31222776, -97.67318393)",1.0,556R,MM26
115361,14-00069717,Coyote Complaints,Phone,Closed,04/21/2014 07:47:54 AM,04/16/2014 07:31:09 PM,04/21/2014 07:47:55 AM,04/21/2014 07:47:54 AM,"10017 WHITLEY BAY DR, AUSTIN, TX",10017.0,WHITLEY BAY,AUSTIN,78717.0,WILLIAMSON,3106636.90602047,10156381.825911501,30.50393645,-97.76084341,"(30.50393645, -97.76084341)",6.0,404C,MH42
115362,14-00069433,Coyote Complaints,Phone,Closed,04/21/2014 07:47:08 AM,04/16/2014 02:11:34 PM,04/21/2014 07:47:08 AM,04/21/2014 07:47:08 AM,"8851 MOUNTAIN RIDGE CIR, AUSTIN, TX",8851.0,MOUNTAIN RIDGE,AUSTIN,78759.0,TRAVIS,3110039.43518868,10113528.0093387,30.3859201,-97.7531978,"(30.3859201, -97.7531978)",10.0,494M,MH32
115363,14-00069149,Coyote Complaints,Phone,Closed,04/21/2014 07:46:14 AM,04/16/2014 08:34:50 AM,04/21/2014 07:46:15 AM,04/21/2014 07:46:14 AM,"4408 SACRED ARROW DR, AUSTIN, TX",4408.0,SACRED ARROW,AUSTIN,78735.0,TRAVIS,3089341.83488474,10063305.9603541,30.24916795,-97.82241918,"(30.24916795, -97.82241918)",8.0,613K,ME20
115364,14-00069148,Coyote Complaints,Phone,Closed,04/21/2014 07:45:37 AM,04/16/2014 08:32:57 AM,04/21/2014 07:45:37 AM,04/21/2014 07:45:37 AM,"5560 W WILLIAM CANNON DR, AUSTIN, TX",5560.0,WILLIAM CANNON,AUSTIN,78749.0,TRAVIS,3078493.32641827,10054748.6107625,30.22631326,-97.85737153,"(30.22631326, -97.85737153)",8.0,642B,MC18
115365,14-00069142,Coyote Complaints,Phone,Closed,04/21/2014 07:44:31 AM,04/16/2014 08:27:15 AM,04/21/2014 07:44:31 AM,04/21/2014 07:44:31 AM,"W WILLIAM CANNON DR &W US 290 HWY, AUSTIN, TX",,W WILLIAM CANNON DR &W US 290 HWY,AUSTIN,78749.0,TRAVIS,3076074.39,10057511.22,30.23405521,-97.86483462,"(30.23405521, -97.86483462)",8.0,612T,MC19
116375,14-00068526,Coyote Complaints,Phone,Closed,04/16/2014 08:27:03 AM,04/15/2014 06:36:42 PM,04/16/2014 08:27:03 AM,04/16/2014 08:27:03 AM,"2200 PARKWAY, AUSTIN, TX",2200.0,PARKWAY,AUSTIN,78703.0,TRAVIS,3110419.45413267,10077754.8725987,30.28756046,-97.75462269,"(30.28756046, -97.75462269)",9.0,584H,MH24
116498,14-00066968,Coyote Complaints,Phone,Closed,04/15/2014 03:18:20 PM,04/14/2014 09:34:31 AM,04/15/2014 03:18:20 PM,04/15/2014 03:18:20 PM,"802 S 1ST ST, AUSTIN, TX",802.0,1ST,AUSTIN,78704.0,TRAVIS,3111442.34994446,10065913.112661,30.254944000000002,-97.75225316,"(30.254944, -97.75225316)",9.0,614H,MH21
117138,14-00062303,Coyote Complaints,Phone,Closed,04/14/2014 07:39:10 AM,04/08/2014 09:48:31 AM,04/14/2014 07:39:11 AM,04/14/2014 07:39:10 AM,"3704 RIP FORD DR, AUSTIN, TX",3704.0,RIP FORD,AUSTIN,78732.0,TRAVIS,3067846.58107389,10108924.497355198,30.37588616,-97.88730257,"(30.37588616, -97.88730257)",,491U,MB31
117183,14-00065408,Coyote Complaints,Phone,Closed,04/14/2014 07:53:42 AM,04/11/2014 07:32:10 PM,04/14/2014 07:53:43 AM,04/14/2014 07:53:42 AM,"5600 SHOAL CREEK BLVD, AUSTIN, TX",5600.0,SHOAL CREEK,AUSTIN,78756.0,TRAVIS,3112601.21377248,10093838.626841301,30.33163312,-97.7465272,"(30.33163312, -97.7465272)",7.0,555A,MJ27
117184,14-00064902,Coyote Complaints,Phone,Closed,04/14/2014 07:52:42 AM,04/11/2014 09:17:05 AM,04/14/2014 07:52:43 AM,04/14/2014 07:52:42 AM,"1303 CONSTANT SPRINGS DR, AUSTIN, TX",1303.0,CONSTANT SPRINGS,AUSTIN,78746.0,TRAVIS,3093591.73740565,10072022.9737183,30.27286554,-97.80833644,"(30.27286554, -97.80833644)",,583U,MF22
117189,14-00064435,Coyote Complaints,Phone,Closed,04/14/2014 07:40:54 AM,04/10/2014 03:20:11 PM,04/14/2014 07:40:54 AM,04/14/2014 07:40:54 AM,"802 S 1ST ST, AUSTIN, TX",802.0,1ST,AUSTIN,78704.0,TRAVIS,3111442.34994446,10065913.112661,30.254944000000002,-97.75225316,"(30.254944, -97.75225316)",9.0,614H,MH21
117190,14-00063051,Coyote Complaints,Phone,Closed,04/14/2014 07:39:55 AM,04/09/2014 05:53:00 AM,04/14/2014 07:39:55 AM,04/14/2014 07:39:55 AM,"19 EHRLICH RD, AUSTIN, TX",19.0,EHRLICH,AUSTIN,78746.0,TRAVIS,3085581.21292188,10083662.0705229,30.30535764,-97.83287723,"(30.30535764, -97.83287723)",,553S,ME25
117191,14-00061459,Coyote Complaints,Phone,Closed,04/14/2014 07:38:17 AM,04/07/2014 10:13:58 AM,04/14/2014 07:38:18 AM,04/14/2014 07:38:17 AM,"4105 PRINCE ANDREW LN, AUSTIN, TX",4105.0,PRINCE ANDREW,AUSTIN,78730.0,TRAVIS,3082602.96021025,10103198.8144327,30.35924612,-97.84092561,"(30.35924612, -97.84092561)",,522H,MD30
118985,14-00060506,Coyote Complaints,Phone,Closed,04/06/2014 08:56:28 AM,04/05/2014 01:22:53 PM,04/06/2014 08:56:29 AM,04/06/2014 08:56:28 AM,"508 E MONROE ST, AUSTIN, TX",508.0,MONROE,AUSTIN,78704.0,TRAVIS,3113521.68625973,10062949.5991714,30.24666495,-97.7458875,"(30.24666495, -97.7458875)",9.0,615J,MJ20
118986,14-00060168,Coyote Complaints,Phone,Closed,04/06/2014 08:55:40 AM,04/04/2014 08:12:55 PM,04/06/2014 08:55:40 AM,04/06/2014 08:55:40 AM,"5700 SHOAL CREEK BLVD, AUSTIN, TX",5700.0,SHOAL CREEK,AUSTIN,78757.0,TRAVIS,3111742.39392248,10094957.3767321,30.33476329,-97.74916634,"(30.33476329, -97.74916634)",7.0,525W,MJ28
118988,14-00059706,Coyote Complaints,Phone,Closed,04/06/2014 08:54:54 AM,04/04/2014 09:01:39 AM,04/06/2014 08:54:55 AM,04/06/2014 08:54:54 AM,"11517 HUNTING CREEK LN, SAN LEANNA, TX",11517.0,HUNTING CREEK,SAN LEANNA,78748.0,TRAVIS,3090172.8458022997,10025634.5315709,30.14556236,-97.82248068,"(30.14556236, -97.82248068)",,703F,ME12
118989,14-00059676,Coyote Complaints,Phone,Closed,04/06/2014 08:53:05 AM,04/04/2014 08:29:48 AM,04/06/2014 08:53:06 AM,04/06/2014 08:53:05 AM,"1100 CONSTANT SPRINGS DR, AUSTIN, TX",1100.0,CONSTANT SPRINGS,AUSTIN,78746.0,TRAVIS,3093947.87595274,10072801.178422801,30.2749825,-97.80715257,"(30.2749825, -97.80715257)",,583Q,MF23
118990,14-00059319,Coyote Complaints,Phone,Closed,04/06/2014 08:52:18 AM,04/03/2014 04:40:49 PM,04/06/2014 08:52:19 AM,04/06/2014 08:52:18 AM,"3324 BURKS LN, AUSTIN, TX",3324.0,BURKS,AUSTIN,78732.0,TRAVIS,3065888.84453627,10108386.0,30.37452407,-97.89354691,"(30.37452407, -97.89354691)",,491U,MB31
118991,14-00059104,Coyote Complaints,Phone,Closed,04/06/2014 08:51:22 AM,04/03/2014 11:56:26 AM,04/06/2014 08:51:23 AM,04/06/2014 08:51:22 AM,"6302 SHOAL CREEK BLVD, AUSTIN, TX",6302.0,SHOAL CREEK,AUSTIN,78757.0,TRAVIS,3112499.61601279,10097399.387716802,30.34142764,-97.74658672,"(30.34142764, -97.74658672)",7.0,525S,MJ28
118992,14-00058877,Coyote Complaints,Phone,Closed,04/06/2014 08:50:41 AM,04/03/2014 07:26:20 AM,04/06/2014 08:50:42 AM,04/06/2014 08:50:41 AM,"5804 HIGHLAND HILLS DR, AUSTIN, TX",5804.0,HIGHLAND HILLS,AUSTIN,78731.0,TRAVIS,3108299.61909657,10097642.7637188,30.34236448,-97.75987961,"(30.34236448, -97.75987961)",10.0,524V,MH28
118993,14-00058572,Coyote Complaints,Phone,Closed,04/06/2014 08:49:59 AM,04/02/2014 04:17:17 PM,04/06/2014 08:50:00 AM,04/06/2014 08:49:59 AM,"706 WAYSIDE DR, AUSTIN, TX",706.0,WAYSIDE,AUSTIN,78703.0,TRAVIS,3104334.71340045,10075747.3837795,30.282428499999998,-97.7740422,"(30.2824285, -97.7740422)",10.0,584K,MG23
118994,14-00058404,Coyote Complaints,Phone,Closed,04/06/2014 08:49:13 AM,04/02/2014 01:47:02 PM,04/06/2014 08:49:14 AM,04/06/2014 08:49:13 AM,"6300 HUNTCLIFF DR, AUSTIN, TX",6300.0,HUNTCLIFF,AUSTIN,78731.0,TRAVIS,3105109.0,10100348.0,30.35000336,-97.7697939,"(30.35000336, -97.7697939)",10.0,524L,MH29
118995,14-00058258,Coyote Complaints,Phone,Closed,04/06/2014 08:47:10 AM,04/02/2014 10:58:58 AM,04/06/2014 08:47:12 AM,04/06/2014 08:47:10 AM,"4100 CAT MOUNTAIN DR, AUSTIN, TX",4100.0,CAT MOUNTAIN,AUSTIN,78731.0,TRAVIS,3104384.33625731,10100905.7289005,30.35158238,-97.77205002,"(30.35158238, -97.77205002)",10.0,524K,MG29
120164,14-00057403,Coyote Complaints,Phone,Closed,04/02/2014 08:16:05 AM,04/01/2014 07:49:21 AM,04/02/2014 08:16:06 AM,04/02/2014 08:16:05 AM,"5905 HIGHLAND PASS, AUSTIN, TX",5905.0,HIGHLAND,AUSTIN,78731.0,TRAVIS,3107780.58380652,10098310.031675698,30.34423171,-97.76147566,"(30.34423171, -97.76147566)",10.0,524Q,MH29
120235,14-00057587,Coyote Complaints,Phone,Closed,04/02/2014 08:17:58 AM,04/01/2014 12:01:51 PM,04/02/2014 08:17:58 AM,04/02/2014 08:17:58 AM,"LEAR LN & GAINES MILL LN, AUSTIN, TX",,LEAR LN & GAINES MILL LN,AUSTIN,78745.0,TRAVIS,3092235.5,10044618.0,30.19761717,-97.81459714,"(30.19761717, -97.81459714)",5.0,643T,ME16
120236,14-00057545,Coyote Complaints,Phone,Closed,04/02/2014 08:17:17 AM,04/01/2014 11:08:00 AM,04/02/2014 08:17:18 AM,04/02/2014 08:17:17 AM,"8808 TAYLOR RD, AUSTIN, TX",8808.0,TAYLOR,AUSTIN,78733.0,TRAVIS,3079407.0103078997,10093580.1337286,30.33300163,-97.85173664,"(30.33300163, -97.85173664)",,522Y,MD28
120237,14-00057523,Coyote Complaints,Phone,Duplicate (closed),04/02/2014 08:16:05 AM,04/01/2014 10:38:51 AM,04/02/2014 08:16:05 AM,04/02/2014 08:16:05 AM,"5905 HIGHLAND PASS, AUSTIN, TX",5905.0,HIGHLAND,AUSTIN,78731.0,TRAVIS,3107780.58380652,10098310.031675698,30.34423171,-97.76147566,"(30.34423171, -97.76147566)",10.0,524Q,MH29
120238,14-00057794,Coyote Complaints,Phone,Duplicate (closed),04/02/2014 08:16:05 AM,04/01/2014 05:02:55 PM,04/02/2014 08:16:05 AM,04/02/2014 08:16:05 AM,"5905 HIGHLAND PASS, AUSTIN, TX",5905.0,HIGHLAND,AUSTIN,78731.0,TRAVIS,3107780.58380652,10098310.031675698,30.34423171,-97.76147566,"(30.34423171, -97.76147566)",10.0,524Q,MH29
120239,14-00056884,Coyote Complaints,Phone,Closed,04/02/2014 08:15:22 AM,03/31/2014 12:57:02 PM,04/02/2014 08:15:23 AM,04/02/2014 08:15:22 AM,"7631 E US 290 HWY EB, AUSTIN, TX",7631.0,290,AUSTIN,78723.0,TRAVIS,3135815.7570952005,10091905.1454894,30.32481306,-97.67311049,"(30.32481306, -97.67311049)",1.0,556H,MM27
120241,14-00056718,Coyote Complaints,Phone,Closed,04/02/2014 08:14:43 AM,03/31/2014 10:02:34 AM,04/02/2014 08:14:43 AM,04/02/2014 08:14:43 AM,"4616 CHATEAU VILLAGE WAY, AUSTIN, TX",4616.0,CHATEAU VILLAGE,AUSTIN,78744.0,TRAVIS,3109763.719655,10035760.8843059,30.17216725,-97.75977751,"(30.17216725, -97.75977751)",2.0,674R,MH14
120243,14-00056625,Coyote Complaints,Phone,Closed,04/02/2014 08:14:02 AM,03/31/2014 09:03:34 AM,04/02/2014 08:14:02 AM,04/02/2014 08:14:02 AM,"WESTMINSTER GLEN AVE & CITY PARK RD, AUSTIN, TX",,WESTMINSTER GLEN AVE & CITY PARK RD,AUSTIN,78730.0,TRAVIS,3085502.7,10103571.93,30.36009283,-97.83170725,"(30.36009283, -97.83170725)",10.0,523E,ME30
120245,14-00056505,Coyote Complaints,Phone,Closed,04/02/2014 08:13:19 AM,03/31/2014 02:05:43 AM,04/02/2014 08:13:20 AM,04/02/2014 08:13:19 AM,"SCOFIELD RIDGE PKWY & BURNET RD, AUSTIN, TX",,SCOFIELD RIDGE PKWY & BURNET RD,AUSTIN,78727.0,TRAVIS,3126036.92,10130234.69,30.43081391,-97.70122183,"(30.43081391, -97.70122183)",7.0,466E,ML36
120246,14-00056025,Coyote Complaints,Phone,Closed,04/02/2014 08:12:32 AM,03/30/2014 11:56:42 AM,04/02/2014 08:12:33 AM,04/02/2014 08:12:32 AM,"9005 LOCKLEVEN LOOP, AUSTIN, TX",9005.0,LOCKLEVEN,AUSTIN,78750.0,TRAVIS,3096262.81995404,10126764.4141475,30.42317665,-97.79592196,"(30.42317665, -97.79592196)",6.0,463M,MF35
120247,14-00055883,Coyote Complaints,Phone,Closed,04/02/2014 08:11:46 AM,03/30/2014 04:37:49 AM,04/02/2014 08:11:47 AM,04/02/2014 08:11:46 AM,"8701 BLUFFSTONE CV, AUSTIN, TX",8701.0,BLUFFSTONE,AUSTIN,78759.0,TRAVIS,3105870.86596143,10114610.5705443,30.38916107,-97.76633582,"(30.38916107, -97.76633582)",10.0,494L,MH32
120249,14-00055336,Coyote Complaints,Phone,Closed,04/02/2014 08:10:30 AM,03/29/2014 01:54:01 PM,04/02/2014 08:10:31 AM,04/02/2014 08:10:30 AM,"7631 E US 290 HWY EB, AUSTIN, TX",7631.0,290,AUSTIN,78723.0,TRAVIS,3135815.7570952005,10091905.1454894,30.32481306,-97.67311049,"(30.32481306, -97.67311049)",1.0,556H,MM27
120251,14-00055035,Coyote Complaints,Phone,Closed,04/02/2014 08:09:36 AM,03/29/2014 08:42:04 AM,04/02/2014 08:09:36 AM,04/02/2014 08:09:36 AM,"4700 CONVICT HILL RD, AUSTIN, TX",4700.0,CONVICT HILL,AUSTIN,78749.0,TRAVIS,3081529.16703962,10051783.8727963,30.21797737,-97.84797128,"(30.21797737, -97.84797128)",8.0,642G,MD18
120255,14-00055032,Coyote Complaints,Phone,Closed,04/02/2014 08:01:56 AM,03/29/2014 08:33:28 AM,04/02/2014 08:01:56 AM,04/02/2014 08:01:56 AM,"GREYSTONE DR & CHIMNEY CORNERS, AUSTIN, TX",,GREYSTONE DR & CHIMNEY CORNERS,AUSTIN,78731.0,TRAVIS,3108848.25,10104511.0,30.36120943,-97.75763677,"(30.36120943, -97.75763677)",10.0,524H,MH30
120257,14-00054265,Coyote Complaints,Phone,Closed,04/02/2014 08:01:13 AM,03/28/2014 09:20:03 AM,04/02/2014 08:01:14 AM,04/02/2014 08:01:13 AM,"13206 MANSFIELD DR, AUSTIN, TX",13206.0,MANSFIELD,AUSTIN,78732.0,TRAVIS,3065523.97941537,10113797.426010499,30.38942178,-97.89432746,"(30.38942178, -97.89432746)",,491L,MB32
120259,14-00054256,Coyote Complaints,Phone,Closed,04/02/2014 07:59:52 AM,03/28/2014 09:12:29 AM,04/02/2014 07:59:52 AM,04/02/2014 07:59:52 AM,"6500 SITIO DEL RIO BLVD, AUSTIN, TX",6500.0,SITIO DEL RIO,AUSTIN,78730.0,TRAVIS,3081613.54710702,10114424.918627199,30.39016666,-97.84326523,"(30.39016666, -97.84326523)",10.0,492M,MD32
120298,14-00052723,Coyote Complaints,Phone,Closed,04/01/2014 03:24:41 PM,03/26/2014 07:32:51 AM,04/01/2014 03:24:42 PM,04/01/2014 03:24:41 PM,"6609 CUESTA TRL, AUSTIN, TX",6609.0,CUESTA,AUSTIN,78730.0,TRAVIS,3090247.99054592,10110322.1259232,30.37835417,-97.81618103,"(30.37835417, -97.81618103)",10.0,493T,ME31
120417,14-00053008,Coyote Complaints,Phone,Closed,04/01/2014 04:25:48 PM,03/26/2014 12:49:59 PM,04/01/2014 04:25:49 PM,04/01/2014 04:25:48 PM,"6400 WILLIAMS RIDGE WAY, AUSTIN, TX",6400.0,WILLIAMS RIDGE,AUSTIN,78731.0,TRAVIS,3102750.58432199,10101627.302030198,30.35366921,-97.77717575,"(30.35366921, -97.77717575)",10.0,524K,MG29
120431,14-00052976,Coyote Complaints,Phone,Closed,04/01/2014 03:25:36 PM,03/26/2014 12:15:20 PM,04/01/2014 03:25:36 PM,04/01/2014 03:25:36 PM,"8900 FM 969 RD, AUSTIN, TX",8900.0,969,AUSTIN,78724.0,TRAVIS,3148247.53910714,10073831.980780499,30.27431037,-97.63510853,"(30.27431037, -97.63510853)",1.0,587R,MP23
120434,14-00052657,Coyote Complaints,Phone,Closed,04/01/2014 03:22:44 PM,03/25/2014 10:38:00 PM,04/01/2014 03:22:44 PM,04/01/2014 03:22:44 PM,"8446 ANTERO DR, AUSTIN, TX",8446.0,ANTERO,AUSTIN,78759.0,TRAVIS,3107846.18591271,10111088.419125501,30.37935365,-97.76033085,"(30.37935365, -97.76033085)",10.0,494R,MH32
122578,14-00050928,Coyote Complaints,Phone,Closed,03/24/2014 11:33:50 AM,03/23/2014 01:56:00 PM,03/24/2014 11:33:50 AM,03/24/2014 11:33:50 AM,"3010 GUERRERO DR, AUSTIN, TX",3010.0,GUERRERO,AUSTIN,78617.0,TRAVIS,3148801.9279517997,10049202.1949865,30.20657164,-97.63524505,"(30.20657164, -97.63524505)",2.0,647R,MP17
122579,14-00050854,Coyote Complaints,Phone,Closed,03/24/2014 11:32:47 AM,03/23/2014 12:20:00 PM,03/24/2014 11:32:48 AM,03/24/2014 11:32:47 AM,"7601 HART LN, AUSTIN, TX",7601.0,HART,AUSTIN,78731.0,TRAVIS,3110506.69324636,10104554.452500999,30.3612232,-97.75237652,"(30.3612232, -97.75237652)",10.0,524H,MH30
122580,14-00050726,Coyote Complaints,Phone,Closed,03/24/2014 11:32:00 AM,03/23/2014 08:25:20 AM,03/24/2014 11:32:01 AM,03/24/2014 11:32:00 AM,"6432 WILLIAMS RIDGE WAY, AUSTIN, TX",6432.0,WILLIAMS RIDGE,AUSTIN,78731.0,TRAVIS,3103171.85148739,10102027.9057235,30.3547438,-97.77581129,"(30.3547438, -97.77581129)",10.0,524K,MG29
122584,14-00050716,Coyote Complaints,Phone,Closed,03/24/2014 11:26:43 AM,03/23/2014 07:06:06 AM,03/24/2014 11:26:43 AM,03/24/2014 11:26:43 AM,"5902 LONESOME VALLEY TRL, AUSTIN, TX",5902.0,LONESOME VALLEY,AUSTIN,78731.0,TRAVIS,3104158.47983944,10098469.669828901,30.34490026,-97.77294364,"(30.34490026, -97.77294364)",10.0,524P,MG29
122586,14-00048750,Coyote Complaints,Phone,Closed,03/24/2014 11:24:51 AM,03/20/2014 01:57:57 PM,03/24/2014 11:24:51 AM,03/24/2014 11:24:51 AM,"9900 MC NEIL DR, AUSTIN, TX",9900.0,MC NEIL,AUSTIN,78750.0,TRAVIS,3084601.31147028,10116040.229527699,30.39442278,-97.83367629,"(30.39442278, -97.83367629)",10.0,493E,ME33
122587,14-00048532,Coyote Complaints,Phone,Closed,03/24/2014 11:23:57 AM,03/20/2014 09:22:23 AM,03/24/2014 11:23:58 AM,03/24/2014 11:23:57 AM,"4301 WILD PLUM CT, AUSTIN, TX",4301.0,WILD PLUM,AUSTIN,78731.0,TRAVIS,3103536.95920293,10098704.8947013,30.34558618,-97.7748963,"(30.34558618, -97.7748963)",10.0,524P,MG29
122599,14-00048412,Coyote Complaints,Phone,Closed,03/24/2014 10:40:12 AM,03/20/2014 01:12:01 AM,03/24/2014 10:40:12 AM,03/24/2014 10:40:12 AM,"4709 PREAKNESS DR, AUSTIN, TX",4709.0,PREAKNESS,AUSTIN,78617.0,TRAVIS,3147606.7783538997,10039421.3013888,30.17976588,-97.63977701,"(30.17976588, -97.63977701)",,677L,MP14
122600,14-00048075,Coyote Complaints,Phone,Closed,03/24/2014 10:39:39 AM,03/19/2014 01:46:57 PM,03/24/2014 10:39:39 AM,03/24/2014 10:39:39 AM,"5900 LONESOME VALLEY TRL, AUSTIN, TX",5900.0,LONESOME VALLEY,AUSTIN,78731.0,TRAVIS,3104160.5798279,10098451.4779288,30.34485012,-97.77293831,"(30.34485012, -97.77293831)",10.0,524P,MG29
122601,14-00048045,Coyote Complaints,Phone,Closed,03/24/2014 10:39:00 AM,03/19/2014 01:14:10 PM,03/24/2014 10:39:00 AM,03/24/2014 10:39:00 AM,"5906 WESTSLOPE DR, AUSTIN, TX",5906.0,WESTSLOPE,AUSTIN,78731.0,TRAVIS,3100919.11259102,10098619.1385681,30.34551571,-97.78319947,"(30.34551571, -97.78319947)",10.0,524N,MG29
122602,14-00048034,Coyote Complaints,Phone,Closed,03/24/2014 10:38:14 AM,03/19/2014 12:56:08 PM,03/24/2014 10:38:14 AM,03/24/2014 10:38:14 AM,"3918 CANEY CREEK RD, AUSTIN, TX",3918.0,CANEY CREEK,AUSTIN,78732.0,TRAVIS,3067273.87430212,10110338.800329,30.37980861,-97.88901976,"(30.37980861, -97.88901976)",,491Q,MB32
122604,14-00047577,Coyote Complaints,Phone,Closed,03/24/2014 10:37:05 AM,03/18/2014 06:03:07 PM,03/24/2014 10:37:05 AM,03/24/2014 10:37:05 AM,"4109 IDALIA DR, AUSTIN, TX",4109.0,IDALIA,AUSTIN,78749.0,TRAVIS,3077245.05571773,10038981.6680248,30.18304786,-97.86243175,"(30.18304786, -97.86243175)",8.0,672F,MC15
122605,14-00047459,Coyote Complaints,Phone,Closed,03/24/2014 10:35:58 AM,03/18/2014 03:18:33 PM,03/24/2014 10:35:58 AM,03/24/2014 10:35:58 AM,"6303 WAYNESBURG CV, AUSTIN, TX",6303.0,WAYNESBURG,AUSTIN,78723.0,TRAVIS,3138341.96321244,10084074.0465397,30.30312053,-97.66570108,"(30.30312053, -97.66570108)",1.0,557S,MN25
122607,14-00046310,Coyote Complaints,Phone,Closed,03/24/2014 10:31:56 AM,03/17/2014 08:40:42 AM,03/24/2014 10:31:56 AM,03/24/2014 10:31:56 AM,"19217 SEAN AVERY PATH, LAKEWAY, TX",19217.0,SEAN AVERY,LAKEWAY,78669.0,TRAVIS,3022256.09512278,10097645.6600979,30.347555199999995,-98.03258815,"(30.3475552, -98.03258815)",,518N,WU29
122609,14-00046283,Coyote Complaints,Phone,Closed,03/24/2014 10:30:49 AM,03/17/2014 07:50:38 AM,03/24/2014 10:30:50 AM,03/24/2014 10:30:49 AM,"MAULDING PASS & FAIR VALLEY TRL, AUSTIN, TX",,MAULDING PASS & FAIR VALLEY TRL,AUSTIN,78749.0,TRAVIS,3080861.25,10055293.45,30.22766584,-97.84983735,"(30.22766584, -97.84983735)",8.0,612Y,MD19
122610,14-00046267,Coyote Complaints,Phone,Closed,03/24/2014 10:29:58 AM,03/17/2014 06:15:06 AM,03/24/2014 10:29:58 AM,03/24/2014 10:29:58 AM,"11350 FOUR POINTS DR, AUSTIN, TX",11350.0,FOUR POINTS,AUSTIN,78726.0,TRAVIS,3079973.03904275,10119697.4365468,30.40476126,-97.84809352,"(30.40476126, -97.84809352)",6.0,462Y,MD34
123979,14-00043064,Coyote Complaints,Phone,Closed,03/19/2014 09:08:16 AM,03/12/2014 09:13:23 PM,03/19/2014 09:08:17 AM,03/19/2014 09:08:16 AM,"10301 FM 2222 RD, AUSTIN, TX",10301.0,2222,AUSTIN,78730.0,TRAVIS,3083112.87913142,10115166.6435342,30.39211324,-97.83845828,"(30.39211324, -97.83845828)",10.0,492H,MD33
123980,14-00042603,Coyote Complaints,Phone,Closed,03/19/2014 09:07:13 AM,03/12/2014 10:25:54 AM,03/19/2014 09:07:14 AM,03/19/2014 09:07:13 AM,"3411 LATIMER DR, AUSTIN, TX",3411.0,LATIMER,AUSTIN,78732.0,TRAVIS,3067499.78983462,10107924.570015,30.37315838,-97.88847174,"(30.37315838, -97.88847174)",,491Y,MB31
127103,14-00037111,Coyote Complaints,Phone,Closed,03/05/2014 12:33:20 PM,03/03/2014 03:21:28 PM,03/05/2014 12:33:20 PM,03/05/2014 12:33:20 PM,"3703 RIP FORD DR, AUSTIN, TX",3703.0,RIP FORD,AUSTIN,78732.0,TRAVIS,3067825.29687612,10108876.449494801,30.37575537,-97.8873734,"(30.37575537, -97.8873734)",,491U,MB31
127123,14-00036876,Coyote Complaints,Phone,Closed,03/05/2014 12:32:13 PM,03/03/2014 10:44:27 AM,03/05/2014 12:32:13 PM,03/05/2014 12:32:13 PM,"1900 JENTSCH CT, AUSTIN, TX",1900.0,JENTSCH,AUSTIN,78745.0,TRAVIS,3098622.84983248,10053157.2268062,30.22069111,-97.79376717,"(30.22069111, -97.79376717)",5.0,643H,MF18
127154,14-00038004,Coyote Complaints,Phone,Closed,03/05/2014 12:39:10 PM,03/05/2014 08:42:51 AM,03/05/2014 12:39:10 PM,03/05/2014 12:39:10 PM,"FAR WEST BLVD & CANDLE RIDGE DR, AUSTIN, TX",,FAR WEST BLVD & CANDLE RIDGE DR,AUSTIN,78731.0,TRAVIS,3102440.0,10104141.0,30.36059868,-97.77797713,"(30.36059868, -97.77797713)",10.0,524F,MG30
127156,14-00037978,Coyote Complaints,Phone,Closed,03/05/2014 12:38:21 PM,03/05/2014 07:56:55 AM,03/05/2014 12:38:21 PM,03/05/2014 12:38:21 PM,"4500 STEINER RANCH BLVD 2214, AUSTIN, TX",4500.0,STEINER RANCH,AUSTIN,78732.0,TRAVIS,3071068.24816218,10110787.143979,30.38081128,-97.87695808,"(30.38081128, -97.87695808)",,491R,MB32
127168,14-00037892,Coyote Complaints,Phone,Closed,03/05/2014 12:36:59 PM,03/04/2014 07:55:23 PM,03/05/2014 12:37:00 PM,03/05/2014 12:36:59 PM,"STEINER RANCH BLVD &N QUINLAN PARK RD, AUSTIN, TX",,STEINER RANCH BLVD &N QUINLAN PARK RD,AUSTIN,78732.0,TRAVIS,3066493.16,10106476.3,30.36923795,-97.89176390000002,"(30.36923795, -97.8917639)",,491Y,MB31
127171,14-00037771,Coyote Complaints,Phone,Closed,03/05/2014 12:36:08 PM,03/04/2014 03:59:02 PM,03/05/2014 12:36:09 PM,03/05/2014 12:36:08 PM,"5400 JEFFBURN CV, AUSTIN, TX",5400.0,JEFFBURN,AUSTIN,78745.0,TRAVIS,3101561.32932868,10050318.810592098,30.21270393,-97.78467194,"(30.21270393, -97.78467194)",2.0,644J,MG17
127172,14-00037716,Coyote Complaints,Phone,Closed,03/05/2014 12:35:26 PM,03/04/2014 02:54:56 PM,03/05/2014 12:35:26 PM,03/05/2014 12:35:26 PM,"JEFFBURN CV & SALEM WALK DR, AUSTIN, TX",,JEFFBURN CV & SALEM WALK DR,AUSTIN,78745.0,TRAVIS,3101529.25,10050073.0,30.21203025,-97.7847913,"(30.21203025, -97.7847913)",2.0,644J,MG17
127174,14-00037446,Coyote Complaints,Phone,Closed,03/05/2014 12:34:09 PM,03/04/2014 09:06:38 AM,03/05/2014 12:34:09 PM,03/05/2014 12:34:09 PM,"4908 MANCHESTER CIR, AUSTIN, TX",4908.0,MANCHESTER,AUSTIN,78745.0,TRAVIS,3106660.83937523,10049744.578695,30.21080322,-97.76857386,"(30.21080322, -97.76857386)",3.0,644L,MH17
127895,14-00034715,Coyote Complaints,Phone,Closed,03/02/2014 10:30:21 AM,02/27/2014 12:28:35 PM,03/02/2014 10:30:21 AM,03/02/2014 10:30:21 AM,"12404 RED MESA HOLW, AUSTIN, TX",12404.0,RED MESA,AUSTIN,78739.0,TRAVIS,3073999.64600677,10028957.0160497,30.15568893,-97.87340209,"(30.15568893, -97.87340209)",,702A,MC12
127905,14-00035959,Coyote Complaints,Phone,Closed,03/02/2014 10:38:04 AM,03/01/2014 03:38:58 PM,03/02/2014 10:38:05 AM,03/02/2014 10:38:04 AM,"7401 SPRINGTIME TRL, AUSTIN, TX",7401.0,SPRINGTIME,AUSTIN,78744.0,TRAVIS,3117374.07791736,10033058.9862338,30.1642539,-97.73590057,"(30.1642539, -97.73590057)",2.0,675T,MJ13
127906,14-00035792,Coyote Complaints,Phone,Closed,03/02/2014 10:37:16 AM,03/01/2014 10:57:54 AM,03/02/2014 10:37:16 AM,03/02/2014 10:37:16 AM,"8400 SAGE MOUNTAIN TRL, AUSTIN, TX",8400.0,SAGE MOUNTAIN,AUSTIN,78736.0,TRAVIS,3067143.08207407,10060616.3701773,30.243132799999998,-97.89289354,"(30.2431328, -97.89289354)",8.0,611Q,MB20
127908,14-00035694,Coyote Complaints,Phone,Closed,03/02/2014 10:36:39 AM,03/01/2014 01:30:08 AM,03/02/2014 10:36:40 AM,03/02/2014 10:36:39 AM,"10301 FM 2222 RD, AUSTIN, TX",10301.0,2222,AUSTIN,78730.0,TRAVIS,3083112.87913142,10115166.6435342,30.39211324,-97.83845828,"(30.39211324, -97.83845828)",10.0,492H,MD33
127909,14-00035669,Coyote Complaints,Phone,Closed,03/02/2014 10:35:50 AM,02/28/2014 11:04:31 PM,03/02/2014 10:35:50 AM,03/02/2014 10:35:50 AM,"4157 CANYON GLEN CIR, AUSTIN, TX",4157.0,CANYON GLEN,AUSTIN,78732.0,TRAVIS,3068166.29344701,10110365.046744501,30.37982681,-97.88618846,"(30.37982681, -97.88618846)",,491Q,MB32
127910,14-00035615,Coyote Complaints,Phone,Closed,03/02/2014 10:35:12 AM,02/28/2014 08:14:41 PM,03/02/2014 10:35:12 AM,03/02/2014 10:35:12 AM,"2103 MORLEY DR, AUSTIN, TX",2103.0,MORLEY,AUSTIN,78752.0,TRAVIS,3133351.94702187,10092420.0632337,30.32639022,-97.68087847,"(30.32639022, -97.68087847)",1.0,556C,MM27
127911,14-00035377,Coyote Complaints,Phone,Closed,03/02/2014 10:34:33 AM,02/28/2014 03:02:38 PM,03/02/2014 10:34:34 AM,03/02/2014 10:34:33 AM,"10535 INDIGO BROOM LOOP, AUSTIN, TX",10535.0,INDIGO BROOM,AUSTIN,78733.0,TRAVIS,3064789.75580082,10084724.243998,30.30954548,-97.89867358,"(30.30954548, -97.89867358)",,551P,MA26
127912,14-00035256,Coyote Complaints,Phone,Closed,03/02/2014 10:33:23 AM,02/28/2014 12:28:59 PM,03/02/2014 10:33:24 AM,03/02/2014 10:33:23 AM,"1908 MATAGORDA ST, AUSTIN, TX",1908.0,MATAGORDA,AUSTIN,78741.0,TRAVIS,3116460.59615415,10059727.3747557,30.23761931,-97.73682079,"(30.23761931, -97.73682079)",9.0,615T,MJ19
127913,14-00035124,Coyote Complaints,Phone,Closed,03/02/2014 10:31:01 AM,02/28/2014 08:44:50 AM,03/02/2014 10:31:01 AM,03/02/2014 10:31:01 AM,"STEINER RANCH BLVD &N QUINLAN PARK RD, AUSTIN, TX",,STEINER RANCH BLVD &N QUINLAN PARK RD,AUSTIN,78732.0,TRAVIS,3066493.16,10106476.3,30.36923795,-97.89176390000002,"(30.36923795, -97.8917639)",,491Y,MB31
127914,14-00034700,Coyote Complaints,Phone,Closed,03/02/2014 10:29:22 AM,02/27/2014 11:54:14 AM,03/02/2014 10:29:23 AM,03/02/2014 10:29:22 AM,"810 CRESTONE STREAM DR, LAKEWAY, TX",810.0,CRESTONE STREAM,LAKEWAY,78738.0,TRAVIS,3031979.02673003,10090436.0924983,30.32717952,-98.00224949,"(30.32717952, -98.00224949)",,548D,WV27
127915,14-00034562,Coyote Complaints,Phone,Closed,03/02/2014 10:28:39 AM,02/27/2014 08:38:33 AM,03/02/2014 10:28:39 AM,03/02/2014 10:28:39 AM,"LATIMER DR & STEINER RANCH BLVD, AUSTIN, TX",,LATIMER DR & STEINER RANCH BLVD,AUSTIN,78732.0,TRAVIS,3067723.54000001,10109081.97,30.37632648,-97.88768169,"(30.37632648, -97.88768169)",,491U,MB31
127916,14-00034519,Coyote Complaints,Phone,Closed,03/02/2014 10:28:02 AM,02/27/2014 07:35:19 AM,03/02/2014 10:28:02 AM,03/02/2014 10:28:02 AM,"JAKES HILL RD & KELLY LN, PFLUGERVILLE, TX",,JAKES HILL RD & KELLY LN,PFLUGERVILLE,78660.0,TRAVIS,3167651.04000001,10141828.3,30.45990698,-97.56830624,"(30.45990698, -97.56830624)",,439K,MS38
127918,14-00034513,Coyote Complaints,Phone,Closed,03/02/2014 10:27:06 AM,02/27/2014 07:30:36 AM,03/02/2014 10:27:06 AM,03/02/2014 10:27:06 AM,"3411 LATIMER DR, AUSTIN, TX",3411.0,LATIMER,AUSTIN,78732.0,TRAVIS,3067499.78983462,10107924.570015,30.37315838,-97.88847174,"(30.37315838, -97.88847174)",,491Y,MB31
128591,14-00034195,Coyote Complaints,Phone,Closed,02/26/2014 04:35:59 PM,02/26/2014 01:24:31 PM,02/26/2014 04:35:59 PM,02/26/2014 04:35:59 PM,"6118 WAGON BEND TRL, AUSTIN, TX",6118.0,WAGON BEND,AUSTIN,78744.0,TRAVIS,3110026.81460099,10042726.6639034,30.19129829,-97.75843498,"(30.19129829, -97.75843498)",2.0,674D,MH15
128592,14-00034023,Coyote Complaints,Phone,Closed,02/26/2014 04:35:22 PM,02/26/2014 07:42:54 AM,02/26/2014 04:35:22 PM,02/26/2014 04:35:22 PM,"13021 DESSAU RD 380, AUSTIN, TX",13021.0,DESSAU,AUSTIN,78754.0,TRAVIS,3145216.56838769,10119140.7793391,30.39905682,-97.64123421,"(30.39905682, -97.64123421)",1.0,497C,MP33
128593,14-00033794,Coyote Complaints,Phone,Closed,02/26/2014 04:34:33 PM,02/25/2014 04:32:56 PM,02/26/2014 04:34:33 PM,02/26/2014 04:34:33 PM,"3500 DENWOOD DR, AUSTIN, TX",3500.0,DENWOOD,AUSTIN,78759.0,TRAVIS,3112358.67795842,10105914.371286301,30.36484315,-97.74640572,"(30.36484315, -97.74640572)",10.0,525A,MJ30
128594,14-00032848,Coyote Complaints,Phone,Closed,02/26/2014 04:33:41 PM,02/24/2014 11:29:36 AM,02/26/2014 04:33:41 PM,02/26/2014 04:33:41 PM,"7124 LAS VENTANAS DR, AUSTIN, TX",7124.0,LAS VENTANAS,AUSTIN,78731.0,TRAVIS,3103322.75714685,10106212.939885302,30.36623841,-97.77502784,"(30.36623841, -97.77502784)",10.0,524B,MG30
128595,14-00033547,Coyote Complaints,Phone,Duplicate (closed),02/26/2014 04:33:41 PM,02/25/2014 10:31:52 AM,02/26/2014 04:33:41 PM,02/26/2014 04:33:41 PM,"7118 LAS VENTANAS DR, AUSTIN, TX",7118.0,LAS VENTANAS,AUSTIN,78731.0,TRAVIS,3103238.72190086,10106287.4927344,30.36644866,-97.7752888,"(30.36644866, -97.7752888)",10.0,524B,MG30
128596,14-00032673,Coyote Complaints,Phone,Closed,02/26/2014 04:32:28 PM,02/24/2014 08:23:44 AM,02/26/2014 04:32:28 PM,02/26/2014 04:32:28 PM,"7200 N MOPAC EXPY NB, AUSTIN, TX",7200.0,MOPAC EXPY NB,AUSTIN,78731.0,TRAVIS,3112160.69293793,10102049.128280802,30.35423079,-97.74731822,"(30.35423079, -97.74731822)",10.0,525J,MJ29
128597,14-00032638,Coyote Complaints,Phone,Closed,02/26/2014 04:31:37 PM,02/24/2014 07:29:33 AM,02/26/2014 04:31:38 PM,02/26/2014 04:31:37 PM,"2716 BARTON CREEK BLVD, AUSTIN, TX",2716.0,BARTON CREEK,AUSTIN,78735.0,TRAVIS,3073254.2294126,10077369.2303747,30.28881497,-97.87237161,"(30.28881497, -97.87237161)",,582E,MC24
128600,14-00032574,Coyote Complaints,Phone,Closed,02/26/2014 04:30:26 PM,02/23/2014 10:07:24 PM,02/26/2014 04:30:26 PM,02/26/2014 04:30:26 PM,"2103 PLUMBROOK DR, AUSTIN, TX",2103.0,PLUMBROOK,AUSTIN,78746.0,TRAVIS,3086110.0894807,10072344.0814569,30.27421294,-97.83200809,"(30.27421294, -97.83200809)",,583N,ME23
128601,14-00032241,Coyote Complaints,Phone,Closed,02/26/2014 04:29:25 PM,02/23/2014 01:05:15 PM,02/26/2014 04:29:26 PM,02/26/2014 04:29:25 PM,"6608 PERALTO CV, AUSTIN, TX",6608.0,PERALTO,AUSTIN,78730.0,TRAVIS,3092261.16813616,10109574.1901488,30.37617277,-97.80985211,"(30.37617277, -97.80985211)",10.0,493U,MF31
128602,14-00031305,Coyote Complaints,Phone,Closed,02/26/2014 04:28:38 PM,02/22/2014 09:29:22 AM,02/26/2014 04:28:38 PM,02/26/2014 04:28:38 PM,"3412 WESTSIDE CV, AUSTIN, TX",3412.0,WESTSIDE,AUSTIN,78731.0,TRAVIS,3109621.14545651,10098684.9254396,30.34514511,-97.75561481,"(30.34514511, -97.75561481)",10.0,524R,MH29
128603,14-00031267,Coyote Complaints,Phone,Closed,02/26/2014 04:27:46 PM,02/22/2014 07:31:24 AM,02/26/2014 04:27:47 PM,02/26/2014 04:27:46 PM,"WESTSIDE DR & HIGHLAND HILLS TRL, AUSTIN, TX",,WESTSIDE DR & HIGHLAND HILLS TRL,AUSTIN,78731.0,TRAVIS,3109395.75,10098178.0,30.343766,-97.75636639,"(30.343766, -97.75636639)",10.0,524V,MH28
128605,14-00031245,Coyote Complaints,Phone,Closed,02/26/2014 04:27:00 PM,02/22/2014 01:35:24 AM,02/26/2014 04:27:00 PM,02/26/2014 04:27:00 PM,"7504 CROSSDRAW DR, AUSTIN, TX",7504.0,CROSSDRAW,AUSTIN,78731.0,TRAVIS,3104844.40509223,10106994.167752499,30.3682896,-97.77014707,"(30.3682896, -97.77014707)",10.0,494Y,MH31
128607,14-00030604,Coyote Complaints,Phone,Closed,02/26/2014 04:26:14 PM,02/20/2014 08:39:16 PM,02/26/2014 04:26:15 PM,02/26/2014 04:26:14 PM,"2003 WOODMONT AVE, AUSTIN, TX",2003.0,WOODMONT,AUSTIN,78703.0,TRAVIS,3107820.07498499,10078101.3364237,30.28867824,-97.76283075,"(30.28867824, -97.76283075)",10.0,584G,MH24
128609,14-00030318,Coyote Complaints,Phone,Closed,02/26/2014 04:25:04 PM,02/20/2014 01:48:48 PM,02/26/2014 04:25:05 PM,02/26/2014 04:25:04 PM,"3608 RIP FORD DR, AUSTIN, TX",3608.0,RIP FORD,AUSTIN,78732.0,TRAVIS,3067643.70672575,10108866.4505002,30.37573886,-97.88794982,"(30.37573886, -97.88794982)",,491U,MB31
130217,14-00029684,Coyote Complaints,Phone,Closed,02/19/2014 04:05:42 PM,02/19/2014 02:21:25 PM,02/19/2014 04:05:42 PM,02/19/2014 04:05:42 PM,"5905 HIGHLAND PASS, AUSTIN, TX",5905.0,HIGHLAND,AUSTIN,78731.0,TRAVIS,3107780.58380652,10098310.031675698,30.34423171,-97.76147566,"(30.34423171, -97.76147566)",10.0,524Q,MH29
130241,14-00029697,Coyote Complaints,Phone,Closed,02/19/2014 04:06:27 PM,02/19/2014 02:42:32 PM,02/19/2014 04:06:28 PM,02/19/2014 04:06:27 PM,"STEINER RANCH BLVD & LATIMER DR, AUSTIN, TX",,STEINER RANCH BLVD & LATIMER DR,AUSTIN,78732.0,TRAVIS,3067723.54000001,10109081.97,30.37632648,-97.88768169,"(30.37632648, -97.88768169)",,491U,MB31
130280,14-00026738,Coyote Complaints,Phone,Closed,02/19/2014 12:35:49 PM,02/15/2014 12:48:39 AM,02/19/2014 12:35:50 PM,02/19/2014 12:35:49 PM,"500 E STASSNEY LN, AUSTIN, TX",500.0,STASSNEY,AUSTIN,78745.0,TRAVIS,3105931.99439307,10046719.2410508,30.202533199999998,-97.7711012,"(30.2025332, -97.7711012)",3.0,644U,MH16
130289,14-00028983,Coyote Complaints,Phone,Closed,02/19/2014 01:03:32 PM,02/18/2014 03:10:56 PM,02/19/2014 01:03:33 PM,02/19/2014 01:03:32 PM,"10111 D K RANCH RD, AUSTIN, TX",10111.0,D K RANCH,AUSTIN,78759.0,TRAVIS,3101014.55,10123542.72,30.4140217,-97.78108433,"(30.4140217, -97.78108433)",10.0,464S,MG34
130299,14-00029584,Coyote Complaints,Phone,Closed,02/19/2014 01:06:45 PM,02/19/2014 11:31:40 AM,02/19/2014 01:06:46 PM,02/19/2014 01:06:45 PM,"3506 JOHN SIMPSON TRL, AUSTIN, TX",3506.0,JOHN SIMPSON,AUSTIN,78732.0,TRAVIS,3066184.32854739,10109126.591031099,30.37654209,-97.89255859,"(30.37654209, -97.89255859)",,491U,MB31
130300,14-00029358,Coyote Complaints,Phone,Closed,02/19/2014 01:05:31 PM,02/19/2014 12:39:26 AM,02/19/2014 01:05:32 PM,02/19/2014 01:05:31 PM,"2103 PLUMBROOK DR, AUSTIN, TX",2103.0,PLUMBROOK,AUSTIN,78746.0,TRAVIS,3086110.0894807,10072344.0814569,30.27421294,-97.83200809,"(30.27421294, -97.83200809)",,583N,ME23
130301,14-00029065,Coyote Complaints,Phone,Closed,02/19/2014 01:04:23 PM,02/18/2014 04:30:28 PM,02/19/2014 01:04:23 PM,02/19/2014 01:04:23 PM,"3805 HIDDEN HOLW, AUSTIN, TX",3805.0,HIDDEN,AUSTIN,78731.0,TRAVIS,3109418.74251227,10104944.160316499,30.362363800000004,-97.75579656,"(30.3623638, -97.75579656)",10.0,524D,MH30
130302,14-00028471,Coyote Complaints,Phone,Closed,02/19/2014 01:02:39 PM,02/17/2014 07:43:22 PM,02/19/2014 01:02:40 PM,02/19/2014 01:02:39 PM,"10301 FM 2222 RD, AUSTIN, TX",10301.0,2222,AUSTIN,78730.0,TRAVIS,3083112.87913142,10115166.6435342,30.39211324,-97.83845828,"(30.39211324, -97.83845828)",10.0,492H,MD33
130303,14-00027611,Coyote Complaints,Phone,Closed,02/19/2014 01:01:06 PM,02/16/2014 12:08:43 PM,02/19/2014 01:01:06 PM,02/19/2014 01:01:06 PM,"3425 MULBERRY CREEK DR, AUSTIN, TX",3425.0,MULBERRY CREEK,AUSTIN,78732.0,TRAVIS,3067143.26829357,10108610.943568302,30.37506672,-97.88955423,"(30.37506672, -97.88955423)",,491U,MB31
130304,14-00027236,Coyote Complaints,Phone,Closed,02/19/2014 12:58:53 PM,02/15/2014 06:49:44 PM,02/19/2014 12:58:53 PM,02/19/2014 12:58:53 PM,"4422 EAGLES LANDING DR, AUSTIN, TX",4422.0,EAGLES LANDING,AUSTIN,78735.0,TRAVIS,3089143.45077305,10063581.0349995,30.24993641,-97.82302765,"(30.24993641, -97.82302765)",8.0,613K,ME20
130305,14-00026767,Coyote Complaints,Phone,Closed,02/19/2014 12:57:44 PM,02/15/2014 07:47:25 AM,02/19/2014 12:57:45 PM,02/19/2014 12:57:44 PM,"4608 WHIRLAWAY DR, AUSTIN, TX",4608.0,WHIRLAWAY,AUSTIN,78617.0,TRAVIS,3147452.16043167,10040040.2984393,30.18147764,-97.64021878,"(30.18147764, -97.64021878)",,677G,MP15
130310,14-00026697,Coyote Complaints,Phone,Closed,02/19/2014 12:35:05 PM,02/14/2014 09:05:09 PM,02/19/2014 12:35:06 PM,02/19/2014 12:35:05 PM,"COVERED BRIDGE DR & SAMUEL BISHOP DR, AUSTIN, TX",,COVERED BRIDGE DR & SAMUEL BISHOP DR,AUSTIN,78736.0,TRAVIS,3064745.88,10059626.5,30.24055609,-97.90055184,"(30.24055609, -97.90055184)",8.0,611P,MA20
130311,14-00026337,Coyote Complaints,Phone,Closed,02/19/2014 12:34:12 PM,02/14/2014 11:40:12 AM,02/19/2014 12:34:13 PM,02/19/2014 12:34:12 PM,"7808 IMAGE CV, AUSTIN, TX",7808.0,IMAGE,AUSTIN,78750.0,TRAVIS,3094938.43185939,10112862.683278099,30.38504523,-97.80112677,"(30.38504523, -97.80112677)",10.0,493M,MF32
130312,14-00026153,Coyote Complaints,Phone,Closed,02/19/2014 12:33:13 PM,02/14/2014 05:18:48 AM,02/19/2014 12:33:13 PM,02/19/2014 12:33:13 PM,"11350 FOUR POINTS DR, AUSTIN, TX",11350.0,FOUR POINTS,AUSTIN,78726.0,TRAVIS,3079973.03904275,10119697.4365468,30.40476126,-97.84809352,"(30.40476126, -97.84809352)",6.0,462Y,MD34
130313,14-00025394,Coyote Complaints,Phone,Closed,02/19/2014 12:31:54 PM,02/12/2014 04:13:16 PM,02/19/2014 12:31:54 PM,02/19/2014 12:31:54 PM,"6731 CUESTA TRL, AUSTIN, TX",6731.0,CUESTA,AUSTIN,78730.0,TRAVIS,3091846.6390011,10110448.710221902,30.37860258,-97.81110346,"(30.37860258, -97.81110346)",10.0,493U,MF31
130359,14-00025355,Coyote Complaints,Phone,Closed,02/19/2014 09:58:19 AM,02/12/2014 03:12:13 PM,02/19/2014 09:58:20 AM,02/19/2014 09:58:19 AM,"1101 WHEATLEY AVE, AUSTIN, TX",1101.0,WHEATLEY,AUSTIN,78752.0,TRAVIS,3129369.60014418,10094941.038674198,30.33358039,-97.69330766,"(30.33358039, -97.69330766)",4.0,526X,ML28
130515,14-00025046,Coyote Complaints,Phone,Closed,02/18/2014 04:23:21 PM,02/12/2014 08:18:11 AM,02/18/2014 04:23:21 PM,02/18/2014 04:23:21 PM,"4512 EAGLE FEATHER DR, AUSTIN, TX",4512.0,EAGLE FEATHER,AUSTIN,78735.0,TRAVIS,3087340.3866327,10060917.4742138,30.24272632,-97.82892653,"(30.24272632, -97.82892653)",8.0,613N,ME20
130517,14-00024970,Coyote Complaints,Phone,Closed,02/18/2014 04:19:46 PM,02/12/2014 01:08:43 AM,02/18/2014 04:19:46 PM,02/18/2014 04:19:46 PM,"9826 DRIP ROCK LN, AUSTIN, TX",9826.0,DRIP ROCK,AUSTIN,78730.0,TRAVIS,3081321.37858214,10108271.8254349,30.37327029,-97.84462823,"(30.37327029, -97.84462823)",6.0,492U,MD31
130518,14-00024735,Coyote Complaints,Phone,Closed,02/18/2014 04:18:41 PM,02/11/2014 01:30:15 PM,02/18/2014 04:18:42 PM,02/18/2014 04:18:41 PM,"4902 BEVERLY HILLS DR, AUSTIN, TX",4902.0,BEVERLY HILLS,AUSTIN,78731.0,TRAVIS,3105817.21913201,10094826.4896578,30.33478055,-97.76795285,"(30.33478055, -97.76795285)",10.0,524Y,MH28
130520,14-00024745,Coyote Complaints,Phone,Duplicate (closed),02/18/2014 04:18:41 PM,02/11/2014 01:47:14 PM,02/18/2014 04:18:41 PM,02/18/2014 04:18:41 PM,"4904 BEVERLY HILLS DR, AUSTIN, TX",4904.0,BEVERLY HILLS,AUSTIN,78731.0,TRAVIS,3105815.73567434,10094837.2027684,30.33481009,-97.76795677,"(30.33481009, -97.76795677)",10.0,524Y,MH28
131830,14-00024724,Coyote Complaints,Phone,Closed,02/12/2014 04:42:52 PM,02/11/2014 01:15:59 PM,02/12/2014 04:42:53 PM,02/12/2014 04:42:52 PM,"6906 BURNELL DR, AUSTIN, TX",6906.0,BURNELL,AUSTIN,78723.0,TRAVIS,3136517.16127335,10089426.147208901,30.31795262,-97.67107603,"(30.31795262, -97.67107603)",1.0,556M,MM26
131833,14-00024829,Coyote Complaints,Phone,Closed,02/12/2014 04:40:58 PM,02/11/2014 04:15:24 PM,02/12/2014 04:40:58 PM,02/12/2014 04:40:58 PM,"8021 N FM 620 RD, AUSTIN, TX",8021.0,620,AUSTIN,78726.0,TRAVIS,3079929.14774546,10123533.9335769,30.41531019,-97.84796083,"(30.41531019, -97.84796083)",6.0,462Q,MD35
132197,14-00024532,Coyote Complaints,Phone,Closed,02/11/2014 12:54:18 PM,02/11/2014 08:10:30 AM,02/11/2014 12:54:19 PM,02/11/2014 12:54:18 PM,"3704 RIP FORD DR, AUSTIN, TX",3704.0,RIP FORD,AUSTIN,78732.0,TRAVIS,3067846.58107389,10108924.497355198,30.37588616,-97.88730257,"(30.37588616, -97.88730257)",,491U,MB31
132198,14-00023827,Coyote Complaints,Phone,Closed,02/11/2014 12:47:11 PM,02/10/2014 10:03:08 AM,02/11/2014 12:47:12 PM,02/11/2014 12:47:11 PM,"11203 FM 2222 RD, AUSTIN, TX",11203.0,2222,AUSTIN,78730.0,TRAVIS,3079190.05203109,10117666.402422,30.39922617,-97.85072043,"(30.39922617, -97.85072043)",6.0,492C,MD33
132233,14-00024282,Coyote Complaints,Phone,Closed,02/11/2014 12:53:31 PM,02/10/2014 05:12:25 PM,02/11/2014 12:53:32 PM,02/11/2014 12:53:31 PM,"5900 HIGHLAND HILLS DR, AUSTIN, TX",5900.0,HIGHLAND HILLS,AUSTIN,78731.0,TRAVIS,3108379.2577801,10097986.969891699,30.34330559,-97.75960197,"(30.34330559, -97.75960197)",10.0,524V,MH28
132234,14-00024274,Coyote Complaints,Phone,Closed,02/11/2014 12:48:23 PM,02/10/2014 05:03:25 PM,02/11/2014 12:48:23 PM,02/11/2014 12:48:23 PM,"5935 HIGHLAND HILLS DR, AUSTIN, TX",5935.0,HIGHLAND HILLS,AUSTIN,78731.0,TRAVIS,3109268.94467854,10098649.2368534,30.34506945,-97.75673367,"(30.34506945, -97.75673367)",10.0,524R,MH29
132503,14-00022779,Coyote Complaints,Phone,Closed,02/10/2014 07:40:52 AM,02/08/2014 03:14:42 PM,02/10/2014 07:40:53 AM,02/10/2014 07:40:52 AM,"3514 HILLBROOK DR, AUSTIN, TX",3514.0,HILLBROOK,AUSTIN,78731.0,TRAVIS,3108543.76753599,10099118.0092506,30.346404200000002,-97.75899762,"(30.3464042, -97.75899762)",10.0,524R,MH29
132513,14-00021811,Coyote Complaints,Phone,Closed,02/10/2014 07:33:13 AM,02/06/2014 10:11:35 AM,02/10/2014 07:33:13 AM,02/10/2014 07:33:13 AM,"1717 W 10TH ST, AUSTIN, TX",1717.0,10TH,AUSTIN,78703.0,TRAVIS,3107848.92907586,10075116.424782302,30.28047131,-97.76295785,"(30.28047131, -97.76295785)",9.0,584L,MH23
132530,14-00021806,Coyote Complaints,Phone,Closed,02/10/2014 07:32:16 AM,02/06/2014 10:09:07 AM,02/10/2014 07:32:17 AM,02/10/2014 07:32:16 AM,"2621 PECOS ST, AUSTIN, TX",2621.0,PECOS,AUSTIN,78703.0,TRAVIS,3105425.11722461,10084138.3721203,30.30542517,-97.76997605,"(30.30542517, -97.76997605)",10.0,554U,MH25
132540,14-00023641,Coyote Complaints,Phone,Closed,02/10/2014 07:43:20 AM,02/10/2014 03:06:32 AM,02/10/2014 07:43:21 AM,02/10/2014 07:43:20 AM,"N FM 620 RD NB &N US 183 HWY SB, AUSTIN, TX",,N FM 620 RD NB &N US 183 HWY SB,AUSTIN,78613.0,WILLIAMSON,3095434.02,10143056.99,30.4680152,-97.79737254,"(30.4680152, -97.79737254)",6.0,433D,MF39
132541,14-00023639,Coyote Complaints,Phone,Closed,02/10/2014 07:42:41 AM,02/10/2014 02:09:06 AM,02/10/2014 07:42:41 AM,02/10/2014 07:42:41 AM,"2103 PLUMBROOK DR, AUSTIN, TX",2103.0,PLUMBROOK,AUSTIN,78746.0,TRAVIS,3086110.0894807,10072344.0814569,30.27421294,-97.83200809,"(30.27421294, -97.83200809)",,583N,ME23
132542,14-00023248,Coyote Complaints,Phone,Closed,02/10/2014 07:41:57 AM,02/09/2014 12:53:32 PM,02/10/2014 07:41:58 AM,02/10/2014 07:41:57 AM,"5602 CAPRICE DR, AUSTIN, TX",5602.0,CAPRICE,AUSTIN,78731.0,TRAVIS,3107753.58770576,10096806.2800334,30.34009981,-97.76167142,"(30.34009981, -97.76167142)",10.0,524U,MH28
132543,14-00022556,Coyote Complaints,Phone,Closed,02/10/2014 07:39:43 AM,02/08/2014 10:27:16 AM,02/10/2014 07:39:43 AM,02/10/2014 07:39:43 AM,"COURTYARD DR &S SCOUT ISLAND CIR, AUSTIN, TX",,COURTYARD DR &S SCOUT ISLAND CIR,AUSTIN,78731.0,TRAVIS,3098660.5,10102065.0,30.35513014,-97.79010814,"(30.35513014, -97.79010814)",10.0,524J,MG29
132544,14-00022502,Coyote Complaints,Phone,Closed,02/10/2014 07:38:35 AM,02/08/2014 08:37:41 AM,02/10/2014 07:38:35 AM,02/10/2014 07:38:35 AM,"LA CROSSE AVE & SUNDROP VALLEY DR, AUSTIN, TX",,LA CROSSE AVE & SUNDROP VALLEY DR,AUSTIN,78739.0,TRAVIS,3074277.73,10041263.49,30.18950123,-97.87166087,"(30.18950123, -97.87166087)",8.0,672A,MC15
132546,14-00022200,Coyote Complaints,Phone,Closed,02/10/2014 07:35:42 AM,02/07/2014 10:06:22 AM,02/10/2014 07:35:43 AM,02/10/2014 07:35:42 AM,"1623 W 10TH ST, AUSTIN, TX",1623.0,10TH,AUSTIN,78703.0,TRAVIS,3108377.22160059,10074849.9664055,30.27970528,-97.76130415,"(30.27970528, -97.76130415)",9.0,584L,MH23
132548,14-00022158,Coyote Complaints,Phone,Duplicate (closed),02/10/2014 07:33:12 AM,02/07/2014 08:22:44 AM,02/10/2014 07:33:12 AM,02/10/2014 07:33:12 AM,"1704 W 10TH ST, AUSTIN, TX",1704.0,10TH,AUSTIN,78703.0,TRAVIS,3108150.69760885,10075010.2618753,30.28016031,-97.76200986,"(30.28016031, -97.76200986)",9.0,584L,MH23
132549,14-00021836,Coyote Complaints,Phone,Duplicate (closed),02/10/2014 07:33:12 AM,02/06/2014 10:45:32 AM,02/10/2014 07:33:12 AM,02/10/2014 07:33:12 AM,"1717 W 10TH ST, AUSTIN, TX",1717.0,10TH,AUSTIN,78703.0,TRAVIS,3107848.92907586,10075116.424782302,30.28047131,-97.76295785,"(30.28047131, -97.76295785)",9.0,584L,MH23
132550,14-00021817,Coyote Complaints,Phone,Duplicate (closed),02/10/2014 07:32:16 AM,02/06/2014 10:15:54 AM,02/10/2014 07:32:16 AM,02/10/2014 07:32:16 AM,"2621 PECOS ST, AUSTIN, TX",2621.0,PECOS,AUSTIN,78703.0,TRAVIS,3105425.11722461,10084138.3721203,30.30542517,-97.76997605,"(30.30542517, -97.76997605)",10.0,554U,MH25
132628,14-00021804,Coyote Complaints,Phone,Closed,02/09/2014 09:41:17 AM,02/06/2014 10:06:58 AM,02/09/2014 09:41:17 AM,02/09/2014 09:41:17 AM,"5100 SUBURBAN DR, AUSTIN, TX",5100.0,SUBURBAN,AUSTIN,78745.0,TRAVIS,3106727.46773054,10048756.1797729,30.20808204,-97.76843513,"(30.20808204, -97.76843513)",3.0,644Q,MH17
132629,14-00021800,Coyote Complaints,Phone,Closed,02/09/2014 09:40:25 AM,02/06/2014 10:03:45 AM,02/09/2014 09:40:26 AM,02/09/2014 09:40:25 AM,"4614 LAKE VW, AUSTIN, TX",4614.0,LAKE,AUSTIN,78731.0,TRAVIS,3106171.65278091,10094033.745558001,30.33257892,-97.76688761,"(30.33257892, -97.76688761)",10.0,524Y,MH28
132630,14-00021371,Coyote Complaints,Phone,Closed,02/09/2014 09:39:38 AM,02/05/2014 01:44:13 PM,02/09/2014 09:39:39 AM,02/09/2014 09:39:38 AM,"SAM BASS RD & FM 1431 RD, ROUND ROCK, TX",,SAM BASS RD & FM 1431 RD,ROUND ROCK,78641.0,WILLIAMSON,3106420.0,10171001.0,30.54413653,-97.76045841,"(30.54413653, -97.76045841)",,344Z,MH46
132631,14-00020827,Coyote Complaints,Phone,Closed,02/09/2014 09:38:47 AM,02/04/2014 02:43:20 PM,02/09/2014 09:38:47 AM,02/09/2014 09:38:47 AM,"3006 BOWMAN AVE, AUSTIN, TX",3006.0,BOWMAN,AUSTIN,78703.0,TRAVIS,3105059.76021741,10082062.7021142,30.29974257,-97.77128499999999,"(30.29974257, -97.771285)",10.0,554X,MG25
133465,14-00017739,Coyote Complaints,Phone,Closed,02/04/2014 12:55:14 PM,01/30/2014 02:04:05 PM,02/04/2014 12:55:14 PM,02/04/2014 12:55:14 PM,"7811 MOWINKLE DR, AUSTIN, TX",7811.0,MOWINKLE,AUSTIN,78736.0,TRAVIS,3062565.46491247,10059727.10154,30.24096355,-97.9074481,"(30.24096355, -97.9074481)",,611N,MA20
133492,14-00019281,Coyote Complaints,Phone,Closed,02/04/2014 01:03:14 PM,02/01/2014 06:00:36 PM,02/04/2014 01:03:14 PM,02/04/2014 01:03:14 PM,"7805 MOWINKLE DR, AUSTIN, TX",7805.0,MOWINKLE,AUSTIN,78736.0,TRAVIS,3062590.26728129,10059771.1104579,30.24108304,-97.90736654,"(30.24108304, -97.90736654)",,611N,MA20
133513,14-00020407,Coyote Complaints,Phone,Closed,02/04/2014 01:10:23 PM,02/03/2014 06:15:55 PM,02/04/2014 01:10:23 PM,02/04/2014 01:10:23 PM,"11350 FOUR POINTS DR, AUSTIN, TX",11350.0,FOUR POINTS,AUSTIN,78726.0,TRAVIS,3079973.03904275,10119697.4365468,30.40476126,-97.84809352,"(30.40476126, -97.84809352)",6.0,462Y,MD34
133514,14-00020036,Coyote Complaints,Phone,Closed,02/04/2014 01:07:11 PM,02/03/2014 09:24:07 AM,02/04/2014 01:07:12 PM,02/04/2014 01:07:11 PM,"1623 W 10TH ST, AUSTIN, TX",1623.0,10TH,AUSTIN,78703.0,TRAVIS,3108377.22160059,10074849.9664055,30.27970528,-97.76130415,"(30.27970528, -97.76130415)",9.0,584L,MH23
133515,14-00019659,Coyote Complaints,Phone,Closed,02/04/2014 01:06:22 PM,02/02/2014 01:00:18 PM,02/04/2014 01:06:23 PM,02/04/2014 01:06:22 PM,"7501 SHADOWRIDGE RUN 143, AUSTIN, TX",7501.0,SHADOWRIDGE,AUSTIN,78749.0,TRAVIS,3073248.54805213,10054519.9516989,30.22600457,-97.87398999,"(30.22600457, -97.87398999)",8.0,642A,MC18
133517,14-00019533,Coyote Complaints,Phone,Closed,02/04/2014 01:04:05 PM,02/02/2014 08:35:12 AM,02/04/2014 01:04:06 PM,02/04/2014 01:04:05 PM,"4801 NORMAN TRL, AUSTIN, TX",4801.0,NORMAN,AUSTIN,78749.0,TRAVIS,3076611.14033287,10043748.907780198,30.19619121,-97.86410264,"(30.19619121, -97.86410264)",8.0,642X,MC16
133518,14-00018840,Coyote Complaints,Phone,Closed,02/04/2014 01:01:46 PM,01/31/2014 11:34:07 PM,02/04/2014 01:01:46 PM,02/04/2014 01:01:46 PM,"731 PATTERSON AVE, AUSTIN, TX",731.0,PATTERSON,AUSTIN,78703.0,TRAVIS,3107199.26339946,10074699.407949198,30.27936624,-97.76504599,"(30.27936624, -97.76504599)",9.0,584Q,MH23
133519,14-00018061,Coyote Complaints,Phone,Closed,02/04/2014 01:00:32 PM,01/30/2014 10:43:41 PM,02/04/2014 01:00:32 PM,02/04/2014 01:00:32 PM,"2802 LOVELL DR, AUSTIN, TX",2802.0,LOVELL,AUSTIN,78723.0,TRAVIS,3131076.4032731,10080029.931370098,30.29248095,-97.68902237,"(30.29248095, -97.68902237)",1.0,586B,ML24
133520,14-00017884,Coyote Complaints,Phone,Closed,02/04/2014 12:59:26 PM,01/30/2014 05:40:35 PM,02/04/2014 12:59:27 PM,02/04/2014 12:59:26 PM,"DRY CREEK DR & FM 2222 RD, AUSTIN, TX",,DRY CREEK DR & FM 2222 RD,AUSTIN,78731.0,TRAVIS,3107315.08,10097689.05,30.34255429,-97.76299647,"(30.34255429, -97.76299647)",10.0,524U,MH28
133521,14-00017788,Coyote Complaints,Phone,Closed,02/04/2014 12:58:32 PM,01/30/2014 03:12:20 PM,02/04/2014 12:58:32 PM,02/04/2014 12:58:32 PM,"5905 HIGHLAND PASS, AUSTIN, TX",5905.0,HIGHLAND,AUSTIN,78731.0,TRAVIS,3107780.58380652,10098310.031675698,30.34423171,-97.76147566,"(30.34423171, -97.76147566)",10.0,524Q,MH29
133522,14-00017775,Coyote Complaints,Phone,Closed,02/04/2014 12:56:01 PM,01/30/2014 02:57:13 PM,02/04/2014 12:56:02 PM,02/04/2014 12:56:01 PM,"8801 PEARSON RANCH RD, AUSTIN, TX",8801.0,PEARSON RANCH,AUSTIN,78717.0,WILLIAMSON,3109405.27946295,10153330.3665581,30.49537206,-97.75227983,"(30.49537206, -97.75227983)",,404M,MH41
133525,14-00017400,Coyote Complaints,Phone,Closed,02/04/2014 12:54:32 PM,01/30/2014 08:42:45 AM,02/04/2014 12:54:32 PM,02/04/2014 12:54:32 PM,"1717 W 10TH ST, AUSTIN, TX",1717.0,10TH,AUSTIN,78703.0,TRAVIS,3107848.92907586,10075116.424782302,30.28047131,-97.76295785,"(30.28047131, -97.76295785)",9.0,584L,MH23
133527,14-00017374,Coyote Complaints,Phone,Closed,02/04/2014 12:53:05 PM,01/30/2014 08:15:38 AM,02/04/2014 12:53:05 PM,02/04/2014 12:53:05 PM,"5100 SUBURBAN DR, AUSTIN, TX",5100.0,SUBURBAN,AUSTIN,78745.0,TRAVIS,3106727.46773054,10048756.1797729,30.20808204,-97.76843513,"(30.20808204, -97.76843513)",3.0,644Q,MH17
133528,14-00016971,Coyote Complaints,Phone,Closed,02/04/2014 12:51:43 PM,01/29/2014 11:18:01 AM,02/04/2014 12:51:43 PM,02/04/2014 12:51:43 PM,"729 PATTERSON AVE, AUSTIN, TX",729.0,PATTERSON,AUSTIN,78703.0,TRAVIS,3107192.61845825,10074696.3349474,30.27935822,-97.76506726,"(30.27935822, -97.76506726)",9.0,584Q,MH23
133529,14-00016945,Coyote Complaints,Phone,Closed,02/04/2014 12:50:26 PM,01/29/2014 10:33:46 AM,02/04/2014 12:50:27 PM,02/04/2014 12:50:26 PM,"10508 THOROUGHBRED DR, AUSTIN, TX",10508.0,THOROUGHBRED,AUSTIN,78748.0,TRAVIS,3095550.40170589,10028636.7738764,30.15348025,-97.80525654,"(30.15348025, -97.80525654)",5.0,703C,MF12
133530,14-00016921,Coyote Complaints,Phone,Closed,02/04/2014 12:49:39 PM,01/29/2014 09:48:24 AM,02/04/2014 12:49:40 PM,02/04/2014 12:49:39 PM,"11204 REAL QUIET DR, AUSTIN, TX",11204.0,REAL QUIET,AUSTIN,78748.0,TRAVIS,3093665.35047159,10026481.435805198,30.14767317,-97.81137372,"(30.14767317, -97.81137372)",5.0,703G,MF12
133532,14-00016831,Coyote Complaints,Phone,Closed,02/04/2014 12:47:11 PM,01/28/2014 08:58:24 PM,02/04/2014 12:47:12 PM,02/04/2014 12:47:11 PM,"WINDSOR RD &N MOPAC NB TO WINDSOR RAMP, AUSTIN, TX",,WINDSOR RD &N MOPAC NB TO WINDSOR RAMP,AUSTIN,78703.0,TRAVIS,3109058.75,10079212.0,30.29165255,-97.75882582,"(30.29165255, -97.75882582)",9.0,584D,MH24
133533,14-00016773,Coyote Complaints,Phone,Closed,02/04/2014 12:46:25 PM,01/28/2014 05:13:00 PM,02/04/2014 12:46:25 PM,02/04/2014 12:46:25 PM,"7516 STONECLIFF DR, AUSTIN, TX",7516.0,STONECLIFF,AUSTIN,78731.0,TRAVIS,3109741.12357632,10104483.893024499,30.36107805,-97.75480847,"(30.36107805, -97.75480847)",10.0,524H,MH30
133534,14-00016501,Coyote Complaints,Phone,Closed,02/04/2014 12:45:41 PM,01/28/2014 08:02:08 AM,02/04/2014 12:45:41 PM,02/04/2014 12:45:41 PM,"4908 MANCHESTER CIR, AUSTIN, TX",4908.0,MANCHESTER,AUSTIN,78745.0,TRAVIS,3106660.83937523,10049744.578695,30.21080322,-97.76857386,"(30.21080322, -97.76857386)",3.0,644L,MH17
135012,14-00016207,Coyote Complaints,Phone,Closed,01/28/2014 08:00:30 AM,01/27/2014 02:58:33 PM,01/28/2014 08:00:31 AM,01/28/2014 08:00:30 AM,"4500 BREMNER DR, AUSTIN, TX",4500.0,BREMNER,AUSTIN,78749.0,TRAVIS,3078189.02963735,10043887.7590306,30.196476500000003,-97.8590996,"(30.1964765, -97.8590996)",8.0,642X,MC16
135129,14-00014611,Coyote Complaints,Phone,Closed,01/26/2014 08:40:47 AM,01/24/2014 09:14:39 PM,01/26/2014 08:40:48 AM,01/26/2014 08:40:47 AM,"12508 MONAGHAN TRL, AUSTIN, TX",12508.0,MONAGHAN,AUSTIN,78727.0,TRAVIS,3117922.03713684,10128336.619952999,30.42612171,-97.72710447,"(30.42612171, -97.72710447)",7.0,465G,MK36
135197,14-00015876,Coyote Complaints,Phone,Closed,01/27/2014 10:29:22 AM,01/27/2014 08:52:08 AM,01/27/2014 10:29:23 AM,01/27/2014 10:29:22 AM,"4701 STAGGERBRUSH RD, AUSTIN, TX",4701.0,STAGGERBRUSH,AUSTIN,78749.0,TRAVIS,3084426.52770907,10057636.144430801,30.23388632,-97.83838496,"(30.23388632, -97.83838496)",8.0,612V,MD19
135305,14-00014898,Coyote Complaints,Phone,Closed,01/26/2014 08:43:43 AM,01/25/2014 03:23:39 PM,01/26/2014 08:43:43 AM,01/26/2014 08:43:43 AM,"3109 PLANTATION RD, AUSTIN, TX",3109.0,PLANTATION,AUSTIN,78745.0,TRAVIS,3087240.13880264,10044787.1627916,30.19839217,-97.83039317,"(30.19839217, -97.83039317)",5.0,643S,ME16
135312,14-00014357,Coyote Complaints,Phone,Closed,01/26/2014 08:38:33 AM,01/24/2014 10:00:34 AM,01/26/2014 08:38:34 AM,01/26/2014 08:38:33 AM,"6404 DRY CLIFF CV, AUSTIN, TX",6404.0,DRY CLIFF,AUSTIN,78731.0,TRAVIS,3106289.49920448,10100550.4337475,30.35048498,-97.76603749,"(30.35048498, -97.76603749)",10.0,524L,MH29
135340,14-00014722,Coyote Complaints,Phone,Closed,01/26/2014 08:42:26 AM,01/25/2014 11:39:57 AM,01/26/2014 08:42:27 AM,01/26/2014 08:42:26 AM,"5909 CAMINO SECO, AUSTIN, TX",5909.0,CAMINO SECO,AUSTIN,78731.0,TRAVIS,3107373.11267326,10098247.5926931,30.34408597,-97.76277164,"(30.34408597, -97.76277164)",10.0,524Q,MH29
135341,14-00014673,Coyote Complaints,Phone,Closed,01/26/2014 08:41:35 AM,01/25/2014 09:41:31 AM,01/26/2014 08:41:35 AM,01/26/2014 08:41:35 AM,"13825 N US 183 HWY NB, AUSTIN, TX",13825.0,183,AUSTIN,78729.0,WILLIAMSON,3096142.11830845,10142195.384247301,30.46560234,-97.79518785,"(30.46560234, -97.79518785)",6.0,433H,MF39
135342,14-00014483,Coyote Complaints,Phone,Closed,01/26/2014 08:39:57 AM,01/24/2014 02:53:32 PM,01/26/2014 08:39:58 AM,01/26/2014 08:39:57 AM,"NAPA DR & CARLSBAD DR, BEE CAVE, TX",,NAPA DR & CARLSBAD DR,BEE CAVE,78738.0,TRAVIS,3056385.75,10085503.0,30.31218918,-97.92524642,"(30.31218918, -97.92524642)",,550R,WZ26
135343,14-00013753,Coyote Complaints,Phone,Closed,01/26/2014 08:37:46 AM,01/23/2014 10:28:54 AM,01/26/2014 08:37:46 AM,01/26/2014 08:37:46 AM,"5908 DOWN VALLEY CT, AUSTIN, TX",5908.0,DOWN VALLEY,AUSTIN,78731.0,TRAVIS,3102279.04668312,10099142.658634,30.34686901,-97.77885123,"(30.34686901, -97.77885123)",10.0,524P,MG29
135344,14-00013446,Coyote Complaints,Phone,Closed,01/26/2014 08:36:25 AM,01/22/2014 06:33:17 PM,01/26/2014 08:36:26 AM,01/26/2014 08:36:25 AM,"3708 TRAVIS COUNTRY CIR, AUSTIN, TX",3708.0,TRAVIS COUNTRY,AUSTIN,78735.0,TRAVIS,3083562.31391341,10066607.91558,30.25860205,-97.84048425,"(30.25860205, -97.84048425)",8.0,612D,MD21
135345,14-00013252,Coyote Complaints,Phone,Closed,01/26/2014 08:35:24 AM,01/22/2014 12:43:59 PM,01/26/2014 08:35:24 AM,01/26/2014 08:35:24 AM,"1529 BARTON SPRINGS RD, AUSTIN, TX",1529.0,BARTON SPRINGS,AUSTIN,78704.0,TRAVIS,3108510.36889681,10068331.5194074,30.26177855,-97.76135986,"(30.26177855, -97.76135986)",5.0,614C,MH21
135346,14-00013250,Coyote Complaints,Phone,Closed,01/26/2014 08:34:32 AM,01/22/2014 12:42:53 PM,01/26/2014 08:34:32 AM,01/26/2014 08:34:32 AM,"7609 FAWNHOLLOW CV, AUSTIN, TX",7609.0,FAWNHOLLOW,AUSTIN,78750.0,TRAVIS,3095221.53315761,10113001.0109709,30.38540776,-97.80021915,"(30.38540776, -97.80021915)",10.0,493M,MF32
135347,14-00013111,Coyote Complaints,Phone,Closed,01/26/2014 08:28:04 AM,01/22/2014 08:39:16 AM,01/26/2014 08:28:05 AM,01/26/2014 08:28:04 AM,"1717 W 10TH ST, AUSTIN, TX",1717.0,10TH,AUSTIN,78703.0,TRAVIS,3107848.92907586,10075116.424782302,30.28047131,-97.76295785,"(30.28047131, -97.76295785)",9.0,584L,MH23
135348,14-00013020,Coyote Complaints,Phone,Closed,01/26/2014 08:26:40 AM,01/21/2014 08:34:40 PM,01/26/2014 08:26:41 AM,01/26/2014 08:26:40 AM,"5006 BRUSHY RIDGE DR, AUSTIN, TX",5006.0,BRUSHY RIDGE,AUSTIN,78744.0,TRAVIS,3113178.66428194,10038887.248020599,30.18054342,-97.74874392,"(30.18054342, -97.74874392)",2.0,675E,MJ15
135351,14-00012702,Coyote Complaints,Phone,Closed,01/26/2014 08:13:45 AM,01/21/2014 01:16:21 PM,01/26/2014 08:13:46 AM,01/26/2014 08:13:45 AM,"10535 GRAND OAK CIR, AUSTIN, TX",10535.0,GRAND OAK,AUSTIN,78750.0,TRAVIS,3094660.77749445,10128529.018490199,30.42812773,-97.8008761,"(30.42812773, -97.8008761)",6.0,463H,MF36
135352,14-00012452,Coyote Complaints,Phone,Closed,01/26/2014 08:12:51 AM,01/21/2014 06:48:04 AM,01/26/2014 08:12:52 AM,01/26/2014 08:12:51 AM,"3901 DRY LEDGE CV, AUSTIN, TX",3901.0,DRY LEDGE,AUSTIN,78731.0,TRAVIS,3105364.0945989,10100865.9013312,30.35141084,-97.76894753,"(30.35141084, -97.76894753)",10.0,524L,MH29
135354,14-00012451,Coyote Complaints,Phone,Closed,01/26/2014 08:03:47 AM,01/21/2014 06:30:24 AM,01/26/2014 08:03:48 AM,01/26/2014 08:03:47 AM,"3605 EDGEMONT DR, AUSTIN, TX",3605.0,EDGEMONT,AUSTIN,78731.0,TRAVIS,3105500.37291184,10088226.0788377,30.31665697,-97.76943911,"(30.31665697, -97.76943911)",10.0,554L,MH26
135355,14-00012406,Coyote Complaints,Phone,Closed,01/26/2014 08:02:08 AM,01/20/2014 08:37:56 PM,01/26/2014 08:02:09 AM,01/26/2014 08:02:08 AM,"5417 S MOPAC EXPY NB, AUSTIN, TX",5417.0,MOPAC EXPY NB,AUSTIN,78749.0,TRAVIS,3087920.73758783,10056461.7341159,30.23044206,-97.82740697,"(30.23044206, -97.82740697)",8.0,613W,ME19
135356,14-00012271,Coyote Complaints,Phone,Closed,01/26/2014 08:00:51 AM,01/20/2014 05:05:22 PM,01/26/2014 08:00:51 AM,01/26/2014 08:00:51 AM,"10208 SPICEWOOD MESA, AUSTIN, TX",10208.0,SPICEWOOD MESA,AUSTIN,78759.0,TRAVIS,3098520.24307,10125405.7687208,30.41930011,-97.78886017,"(30.41930011, -97.78886017)",10.0,464N,MG35
135357,14-00012270,Coyote Complaints,Phone,Closed,01/26/2014 08:00:01 AM,01/20/2014 05:03:07 PM,01/26/2014 08:00:02 AM,01/26/2014 08:00:01 AM,"12420 BEVERLY VILLAS CT, AUSTIN, TX",12420.0,BEVERLY VILLAS,AUSTIN,78732.0,TRAVIS,3066546.52346843,10107470.8243693,30.37196862,-97.89152551,"(30.37196862, -97.89152551)",,491Y,MB31
136498,14-00012012,Coyote Complaints,Phone,Closed,01/20/2014 04:19:21 PM,01/20/2014 08:21:33 AM,01/21/2014 08:01:59 AM,01/20/2014 04:19:21 PM,"4804 MARBLEHEAD DR, AUSTIN, TX",4804.0,MARBLEHEAD,AUSTIN,78727.0,TRAVIS,3118074.20241826,10128220.275701199,30.425792100000002,-97.72663045,"(30.4257921, -97.72663045)",7.0,465L,MK35
136619,14-00012201,Coyote Complaints,Phone,Closed,01/20/2014 04:23:00 PM,01/20/2014 03:08:00 PM,01/20/2014 04:23:00 PM,01/20/2014 04:23:00 PM,"7609 FAWNHOLLOW CV, AUSTIN, TX",7609.0,FAWNHOLLOW,AUSTIN,78750.0,TRAVIS,3095221.53315761,10113001.0109709,30.38540776,-97.80021915,"(30.38540776, -97.80021915)",10.0,493M,MF32
136620,14-00012064,Coyote Complaints,Phone,Closed,01/20/2014 04:22:00 PM,01/20/2014 10:31:00 AM,01/20/2014 04:22:00 PM,01/20/2014 04:22:00 PM,"714 ETHEL ST, AUSTIN, TX",714.0,ETHEL,AUSTIN,78704.0,TRAVIS,3107983.40232068,10067237.9994453,30.258806099999997,-97.76310858,"(30.2588061, -97.76310858)",5.0,614C,MH21
136621,14-00012016,Coyote Complaints,Phone,Closed,01/20/2014 04:21:00 PM,01/20/2014 08:40:00 AM,01/20/2014 04:21:00 PM,01/20/2014 04:21:00 PM,"5012 CALHOUN CANYON LOOP, AUSTIN, TX",5012.0,CALHOUN CANYON,AUSTIN,78735.0,TRAVIS,3085379.96052916,10062291.7369879,30.24662521,-97.83503558,"(30.24662521, -97.83503558)",8.0,612M,MD20
136682,14-00011957,Coyote Complaints,Phone,Closed,01/20/2014 07:27:00 AM,01/19/2014 10:14:00 PM,01/20/2014 07:27:00 AM,01/20/2014 07:27:00 AM,"7516 STONECLIFF DR, AUSTIN, TX",7516.0,STONECLIFF,AUSTIN,78731.0,TRAVIS,3109741.12357632,10104483.893024499,30.36107805,-97.75480847,"(30.36107805, -97.75480847)",10.0,524H,MH30
136814,14-00011339,Coyote Complaints,Phone,Closed,01/19/2014 08:46:00 AM,01/18/2014 08:53:00 PM,01/19/2014 08:46:00 AM,01/19/2014 08:46:00 AM,"7500 GREENHAVEN DR, AUSTIN, TX",7500.0,GREENHAVEN,AUSTIN,78757.0,TRAVIS,3114720.38023871,10101649.5122505,30.35296845,-97.7392345,"(30.35296845, -97.7392345)",7.0,525K,MJ29
136815,14-00011029,Coyote Complaints,Phone,Closed,01/19/2014 08:45:00 AM,01/18/2014 01:04:00 PM,01/19/2014 08:45:00 AM,01/19/2014 08:45:00 AM,"7630 WOOD HOLLOW DR, AUSTIN, TX",7630.0,WOOD HOLLOW,AUSTIN,78731.0,TRAVIS,3111848.63414146,10104399.343989,30.36071115,-97.74813418,"(30.36071115, -97.74813418)",10.0,525E,MJ30
136816,14-00010618,Coyote Complaints,Phone,Closed,01/19/2014 08:44:00 AM,01/17/2014 05:01:00 PM,01/19/2014 08:44:00 AM,01/19/2014 08:44:00 AM,"9500 LEANING ROCK CIR, AUSTIN, TX",9500.0,LEANING ROCK,AUSTIN,78730.0,TRAVIS,3085345.14376875,10112328.3826565,30.38417327,-97.83158235,"(30.38417327, -97.83158235)",10.0,493N,ME32
136818,14-00010200,Coyote Complaints,Phone,Closed,01/19/2014 08:43:00 AM,01/17/2014 08:28:00 AM,01/19/2014 08:43:00 AM,01/19/2014 08:43:00 AM,"10713 MISTING FALLS TRL, AUSTIN, TX",10713.0,MISTING FALLS,AUSTIN,78759.0,TRAVIS,3110760.76185248,10120848.297502302,30.40599658,-97.75037167,"(30.40599658, -97.75037167)",10.0,464Z,MH34
136819,14-00009644,Coyote Complaints,Phone,Closed,01/19/2014 08:40:00 AM,01/16/2014 12:32:00 PM,01/19/2014 08:40:00 AM,01/19/2014 08:40:00 AM,"7407 NEWHALL LN, AUSTIN, TX",7407.0,NEWHALL,AUSTIN,78746.0,TRAVIS,3082358.80404115,10083970.753313199,30.30640492,-97.84306423,"(30.30640492, -97.84306423)",,552V,MD25
136820,14-00009149,Coyote Complaints,Phone,Closed,01/19/2014 08:38:00 AM,01/15/2014 04:44:00 PM,01/19/2014 08:38:00 AM,01/19/2014 08:38:00 AM,"1812 CRESTHAVEN DR, AUSTIN, TX",1812.0,CRESTHAVEN,AUSTIN,78704.0,TRAVIS,3102034.93488886,10067126.326116199,30.25887561,-97.78195267,"(30.25887561, -97.78195267)",5.0,614A,MG21
